[{"Name":"博荃藥局","Address":"台北市松山區敦化北路4巷51號","Tel":"02 -27316736","Lat":25.05004,"Lng":121.544754,"Area":null},{"Name":"德川中西藥局","Address":"台北市松山區八德路4段96號","Tel":"02 -27683399","Lat":25.0483818,"Lng":121.560715,"Area":null},{"Name":"家音藥局","Address":"台北市松山區民生東路5段73號","Tel":"02 -37652080","Lat":25.0586948,"Lng":121.55851,"Area":null},{"Name":"敦北藥局","Address":"台北市松山區民生東路4段80巷5號","Tel":"02 -27155691","Lat":25.0574245,"Lng":121.553078,"Area":null},{"Name":"中美藥局","Address":"台北市松山區富錦街531號","Tel":"02 -27627468","Lat":25.0612831,"Lng":121.565475,"Area":null},{"Name":"康麗藥局","Address":"台北市松山區南京東路3段303巷20號","Tel":"02 -27174117","Lat":25.053751,"Lng":121.546867,"Area":null},{"Name":"惠登藥局","Address":"台北市松山區民生東路3段130巷34號","Tel":"02 -25472432","Lat":25.0562115,"Lng":121.546089,"Area":null},{"Name":"松田藥局","Address":"台北市松山區延吉街9－6號","Tel":"02 -25798005","Lat":25.0470657,"Lng":121.553696,"Area":null},{"Name":"予志藥局","Address":"台北市松山區富錦街521號","Tel":"02 -27623522","Lat":25.0612621,"Lng":121.564857,"Area":null},{"Name":"婕登藥局","Address":"台北市松山區八德路4段699號","Tel":"02 -27482893","Lat":25.0502148,"Lng":121.576622,"Area":null},{"Name":"晨安藥局","Address":"台北市松山區八德路3段155巷20弄2號","Tel":"02 -25798460","Lat":25.049181,"Lng":121.5553,"Area":null},{"Name":"銘德藥局","Address":"台北市松山區八德路2段366巷28號","Tel":"02 -27511833","Lat":25.0472736,"Lng":121.545914,"Area":null},{"Name":"政昇藥局","Address":"台北市松山區南京東路5段356號13樓","Tel":"02 -27560286","Lat":25.0513878,"Lng":121.544914,"Area":null},{"Name":"立康大藥局","Address":"台北市松山區八德路四段2－1號","Tel":"02 -27471749","Lat":25.0481968,"Lng":121.561844,"Area":null},{"Name":"躍獅松和藥局","Address":"台北市松山區八德路四段666－1號","Tel":"02 -27492569","Lat":25.0498848,"Lng":121.576027,"Area":null},{"Name":"京東藥局","Address":"台北市松山區南京東路五段272號","Tel":"02 -27679503","Lat":25.051136,"Lng":121.566849,"Area":null},{"Name":"晨新藥局","Address":"台北市松山區八德路4段91巷1－1號","Tel":"02 -27422951","Lat":25.0489178,"Lng":121.56076,"Area":null},{"Name":"躍獅京華藥局","Address":"台北市松山區南京東路5段71號","Tel":"02 -27666508","Lat":25.0518169,"Lng":121.559555,"Area":null},{"Name":"綠之家藥局","Address":"台北市松山區延壽街428號","Tel":"02 -25289595","Lat":25.0561543,"Lng":121.556244,"Area":null},{"Name":"德安藥局","Address":"台北市松山區八德路3段195號2樓","Tel":"02 -25782670","Lat":25.04817,"Lng":121.556213,"Area":null},{"Name":"康采藥局","Address":"台北市松山區南京東路5段291巷17－2號","Tel":"02 -27670271","Lat":25.0523338,"Lng":121.566185,"Area":null},{"Name":"誠康中西藥局","Address":"台北市松山區南京東路5段59巷31弄43號","Tel":"02 -27619679","Lat":25.0534267,"Lng":121.560677,"Area":null},{"Name":"慶昌藥局","Address":"台北市松山區延吉街29號","Tel":"02 -25770820","Lat":25.0460052,"Lng":121.55368,"Area":null},{"Name":"唯康藥局","Address":"台北市松山區八德路3段211號","Tel":"02 -25775000","Lat":25.0482273,"Lng":121.556671,"Area":null},{"Name":"西松健康人生藥局","Address":"台北市松山區南京東路5段291巷7號","Tel":"02 -27687807","Lat":25.052042,"Lng":121.566238,"Area":null},{"Name":"台北長庚維康藥局","Address":"台北市松山區敦化北路199巷2弄1號","Tel":"02 -27199386","Lat":25.0556927,"Lng":121.550034,"Area":null},{"Name":"專品南京藥局","Address":"台北市松山區南京東路4段73號","Tel":"02 -25147685","Lat":25.0519066,"Lng":121.553215,"Area":null},{"Name":"芝欣藥局","Address":"台北市松山區八德路3段148號","Tel":"02 -25706677","Lat":25.0480042,"Lng":121.554848,"Area":null},{"Name":"佑翔藥局","Address":"台北市松山區民生東路5段95號","Tel":"02 -87875050","Lat":25.058836,"Lng":121.559723,"Area":null},{"Name":"立赫敦北藥局","Address":"台北市松山區敦化北路222巷20號","Tel":"02 -27199277","Lat":25.059515,"Lng":121.54763,"Area":null},{"Name":"延壽盛康藥局","Address":"台北市松山區延壽街111號","Tel":"02 -25182229","Lat":25.0571041,"Lng":121.565292,"Area":null},{"Name":"富景藥局","Address":"台北市松山區三民路145號","Tel":"02 -27455666","Lat":25.0608158,"Lng":121.563065,"Area":null},{"Name":"健康活力藥師藥局","Address":"台北市松山區民生東路5段219號","Tel":"02 -27455556","Lat":25.0593071,"Lng":121.567055,"Area":null},{"Name":"啄木鳥藥局","Address":"台北市松山區八德路4段209號、211號（1、2層）","Tel":"02 -27422413","Lat":25.0491924,"Lng":121.56395,"Area":null},{"Name":"玖田藥局","Address":"台北市松山區八德路4段655號","Tel":"02 -27666578","Lat":25.0502033,"Lng":121.5755,"Area":null},{"Name":"澄馨藥局","Address":"台北市松山區三民路37號","Tel":"02 -27420159","Lat":25.0558357,"Lng":121.56356,"Area":null},{"Name":"一安正昇藥局","Address":"台北市松山區南京東路5段348號","Tel":"02 -27680993","Lat":25.05103,"Lng":121.56916,"Area":null},{"Name":"美優康藥局","Address":"台北市松山區民生東路4段117之1號","Tel":"02 -27152319","Lat":25.0582523,"Lng":121.553276,"Area":null},{"Name":"杏一延吉藥局","Address":"臺北市松山區延吉街32號","Tel":"02 -25798450","Lat":25.0461159,"Lng":121.553452,"Area":null},{"Name":"松山八德藥局","Address":"臺北市松山區八德路2段400號","Tel":"02 -27782773","Lat":25.0479984,"Lng":121.546532,"Area":null},{"Name":"新德大藥局","Address":"臺北市松山區饒河街204號","Tel":"02 -27673402","Lat":25.0507088,"Lng":121.577133,"Area":null},{"Name":"光點延新藥局","Address":"台北市松山區延壽街101號","Tel":"02 -27667795","Lat":25.05719,"Lng":121.56601,"Area":null},{"Name":"欣生藥局","Address":"臺北市松山區民生東路5段138巷1號","Tel":"02 -27567611","Lat":25.05855,"Lng":121.561653,"Area":null},{"Name":"民生盛康藥局","Address":"臺北市松山區民生東路5段204號","Tel":"02 -27460758","Lat":25.0582619,"Lng":121.564911,"Area":null},{"Name":"杏一台北長庚藥局","Address":"臺北市松山區敦化北路199巷2弄3號","Tel":"02 -25149463","Lat":25.0556011,"Lng":121.550034,"Area":null},{"Name":"立赫民生藥局","Address":"臺北市松山區民生東路4段68號","Tel":"02 -27139200","Lat":25.0578327,"Lng":121.552246,"Area":null},{"Name":"大樹松山藥局","Address":"臺北市松山區民生東路5段107號","Tel":"02 -27562226","Lat":25.0588017,"Lng":121.56015,"Area":null},{"Name":"百立藥局","Address":"台北市大安區和平東路3段228巷66號1樓","Tel":"02 -27327211","Lat":25.02101,"Lng":121.5534,"Area":null},{"Name":"宏恩藥局","Address":"台北市大安區大安路1段181號","Tel":"02 -27000956","Lat":25.0363159,"Lng":121.546173,"Area":null},{"Name":"靜園藥局","Address":"台北市大安區和平東路2段118巷57之1號","Tel":"02 -27336390","Lat":25.022543,"Lng":121.5429,"Area":null},{"Name":"延吉大藥局","Address":"台北市大安區延吉街153號1樓","Tel":"02 -27819227","Lat":25.04013,"Lng":121.554916,"Area":null},{"Name":"北陸藥局","Address":"台北市大安區和平東路3段278號1Ｆ","Tel":"02 -27323594","Lat":25.0210018,"Lng":121.555862,"Area":null},{"Name":"杏友藥局","Address":"台北市大安區復興南路2段151巷25號","Tel":"02 -27079451","Lat":25.0285358,"Lng":121.544662,"Area":null},{"Name":"師大藥局","Address":"台北市大安區師大路99號1樓","Tel":"02 -23623479","Lat":25.02272,"Lng":121.528549,"Area":null},{"Name":"施寶藥局","Address":"台北市大安區安東街50－5號1樓","Tel":"02 -27114175","Lat":25.0427532,"Lng":121.542534,"Area":null},{"Name":"燕福藥局","Address":"台北市大安區羅斯福路3段283巷14弄14號之3","Tel":"02 -23627307","Lat":25.0180969,"Lng":121.532646,"Area":null},{"Name":"龍護大藥局","Address":"台北市大安區大安路1段224巷7號1Ｆ","Tel":"02 -23250686","Lat":25.041151,"Lng":121.546341,"Area":null},{"Name":"新廣生藥局","Address":"台北市大安區仁愛路4段34號","Tel":"02 -27071221","Lat":25.03763,"Lng":121.546722,"Area":null},{"Name":"寶德藥局","Address":"台北市大安區樂利路105號1Ｆ","Tel":"02 -27364240","Lat":25.0251236,"Lng":121.5524,"Area":null},{"Name":"泰佑藥局","Address":"台北市大安區安和路2段72號1Ｆ","Tel":"02 -27056841","Lat":25.03009,"Lng":121.551689,"Area":null},{"Name":"杏安堂藥局","Address":"台北市大安區忠孝東路4段77巷30號1樓","Tel":"02 -27517636","Lat":25.042448,"Lng":121.54715,"Area":null},{"Name":"四維藥局","Address":"台北市大安區復興南路2段151巷43號1樓","Tel":"02 -27094222","Lat":25.02847,"Lng":121.5455,"Area":null},{"Name":"羅斯福藥局","Address":"台北市大安區羅斯福路3段283巷9弄3號","Tel":"02 -23699606","Lat":25.0189037,"Lng":121.531654,"Area":null},{"Name":"赫慶藥局","Address":"台北市大安區瑞安街208巷11弄5號1樓","Tel":"02 -27063497","Lat":25.0286732,"Lng":121.5408,"Area":null},{"Name":"吉成藥局","Address":"台北市大安區泰順街7號","Tel":"02 -23636475","Lat":25.0255623,"Lng":121.531593,"Area":null},{"Name":"順天堂藥局","Address":"台北市大安區龍泉街96號","Tel":"02 -23627149","Lat":25.0225449,"Lng":121.52919,"Area":null},{"Name":"大興藥局","Address":"台北市大安區通化街39巷50弄15號1樓","Tel":"02 -27053369","Lat":25.0306225,"Lng":121.555519,"Area":null},{"Name":"辰安藥局","Address":"台北市大安區大安路1段31巷28號","Tel":"02 -27119536","Lat":25.0439129,"Lng":121.547379,"Area":null},{"Name":"青康藥局","Address":"台北市大安區延吉街248號1Ｆ","Tel":"02 -27086623","Lat":25.0352249,"Lng":121.5556,"Area":null},{"Name":"永誠藥局","Address":"台北市大安區忠孝東路4段216巷25之1號","Tel":"02 -27520273","Lat":25.0400352,"Lng":121.553085,"Area":null},{"Name":"正昌藥局","Address":"台北市大安區通化街38巷9號1樓","Tel":"02 -27540070","Lat":25.0309963,"Lng":121.553833,"Area":null},{"Name":"麗樺藥師藥局","Address":"台北市大安區麗水街3號","Tel":"02 -23952628","Lat":25.0321846,"Lng":121.529007,"Area":null},{"Name":"安和藥局","Address":"台北市大安區安和路1段102巷3號","Tel":"02 -27092349","Lat":25.0276871,"Lng":121.550056,"Area":null},{"Name":"佑安藥局","Address":"台北市大安區延吉街233巷9號","Tel":"02 -27069339","Lat":25.0371037,"Lng":121.556015,"Area":null},{"Name":"弘昇藥局","Address":"台北市大安區復興南路1段107巷32號","Tel":"02 -27110061","Lat":25.0434971,"Lng":121.545837,"Area":null},{"Name":"長虹藥局","Address":"台北市大安區忠孝東路4段216巷 63號","Tel":"02 -27210232","Lat":25.0382824,"Lng":121.553085,"Area":null},{"Name":"惠盈藥局","Address":"台北市大安區辛亥路2段171巷31號","Tel":"02 -87321366","Lat":25.02299,"Lng":121.541222,"Area":null},{"Name":"聯合仁愛藥局","Address":"台北市大安區大安路1段157巷3號","Tel":"02 -27039269","Lat":25.0372963,"Lng":121.546387,"Area":null},{"Name":"一心藥局","Address":"台北市大安區和平東路3段238號","Tel":"02 -27321818","Lat":25.02188,"Lng":121.5549,"Area":null},{"Name":"信安健康藥局","Address":"台北市大安區仁愛路4段122巷58號","Tel":"02 -27084858","Lat":25.03393,"Lng":121.550117,"Area":null},{"Name":"新富川藥局","Address":"台北市大安區大安路1段51巷4號","Tel":"02 -27114758","Lat":25.043047,"Lng":121.546425,"Area":null},{"Name":"聖英藥局","Address":"台北市大安區仁愛路4段266巷15弄18號","Tel":"02 -27055851","Lat":25.036499,"Lng":121.553963,"Area":null},{"Name":"元氣生活健保藥局","Address":"台北市大安區新生南路1段161巷10號","Tel":"02 -27060580","Lat":25.0345154,"Lng":121.53302,"Area":null},{"Name":"康乃馨藥局","Address":"台北市大安區建國南路1段327號","Tel":"02 -23257097","Lat":25.03473,"Lng":121.538246,"Area":null},{"Name":"世康藥局","Address":"台北市大安區延吉街246號","Tel":"02 -27015758","Lat":25.0355415,"Lng":121.555511,"Area":null},{"Name":"惠良藥局","Address":"台北市大安區和平東路3段93－1號","Tel":"02 -27387872","Lat":25.0246181,"Lng":121.55069,"Area":null},{"Name":"愛維康生活藥局","Address":"台北市大安區四維路170巷21號","Tel":"02 -27059791","Lat":25.0283432,"Lng":121.54702,"Area":null},{"Name":"古亭健康人生藥局","Address":"台北市大安區羅斯福路2段83號","Tel":"02 -23660895","Lat":25.0228176,"Lng":121.526123,"Area":null},{"Name":"杏一瑞安藥局","Address":"台北市大安區瑞安街208巷11弄1號","Tel":"02 -27096710","Lat":25.0286427,"Lng":121.540695,"Area":null},{"Name":"好安心藥局","Address":"台北市大安區和平東路2段98之2號","Tel":"02 -23772166","Lat":25.02498,"Lng":121.541451,"Area":null},{"Name":"中山樂方藥局","Address":"台北市大安區仁愛路4段112巷12號","Tel":"02 -27050622","Lat":25.0364952,"Lng":121.549561,"Area":null},{"Name":"天康忠孝藥局","Address":"台北市大安區忠孝東路3段223－1號","Tel":"02 -77137763","Lat":25.0419025,"Lng":121.540039,"Area":null},{"Name":"中力信義藥局","Address":"台北市大安區信義路4段51號","Tel":"02 -23250266","Lat":25.03352,"Lng":121.544968,"Area":null},{"Name":"安居藥局","Address":"台北市大安區安居街19號","Tel":"02 -23773537","Lat":25.0208454,"Lng":121.554955,"Area":null},{"Name":"躍獅新生藥局","Address":"台北市大安區和平東路2段20號","Tel":"02 -23623367","Lat":25.02553,"Lng":121.536194,"Area":null},{"Name":"博大藥局","Address":"台北市大安區安和路2段65號","Tel":"02 -27027858","Lat":25.0306835,"Lng":121.55265,"Area":null},{"Name":"博昱仁愛藥局","Address":"臺北市大安區仁愛路4段65號","Tel":"02 -87739258","Lat":25.0382671,"Lng":121.546883,"Area":null},{"Name":"忠孝康承健保藥局","Address":"台北市大安區復興南路1段107巷4號","Tel":"02 -87733378","Lat":25.04356,"Lng":121.544418,"Area":null},{"Name":"微笑藥師藥局","Address":"台北市大安區信義路3段31巷4號","Tel":"02 -27009655","Lat":25.033989,"Lng":121.5344,"Area":null},{"Name":"明星大藥局","Address":"台北市大安區光復南路430之1號","Tel":"02 -27023747","Lat":25.03622,"Lng":121.557312,"Area":null},{"Name":"博昱師大藥局","Address":"台北市大安區羅斯福路3段189號","Tel":"02 -23696966","Lat":25.0211086,"Lng":121.528091,"Area":null},{"Name":"國泰維康藥局","Address":"台北市大安區仁愛路4段266巷15弄20號","Tel":"02 -27542185","Lat":25.036541,"Lng":121.554077,"Area":null},{"Name":"奇威藥局","Address":"台北市大安區雲和街93號","Tel":"02 -23651110","Lat":25.0233326,"Lng":121.531136,"Area":null},{"Name":"艾登安和藥局","Address":"台北市大安區安和路1段123號","Tel":"02 -27015201","Lat":25.03489,"Lng":121.552711,"Area":null},{"Name":"百岳藥局","Address":"台北市大安區和平東路2段311巷11號","Tel":"02 -27551037","Lat":25.0251446,"Lng":121.545227,"Area":null},{"Name":"大安健康人生藥局","Address":"台北市大安區信義路4段34號","Tel":"02 -27025553","Lat":25.0331078,"Lng":121.544807,"Area":null},{"Name":"博昱大藥局","Address":"台北市大安區樂業街148號、150號","Tel":"02 -23776199","Lat":25.0199585,"Lng":121.552963,"Area":null},{"Name":"仁華藥局","Address":"台北市大安區臥龍街155號","Tel":"02 -27336762","Lat":25.0184078,"Lng":121.5511,"Area":null},{"Name":"吾家藥局","Address":"台北市大安區信義路4段265巷6之1號","Tel":"02 -27066425","Lat":25.0336533,"Lng":121.554192,"Area":null},{"Name":"早安藥局","Address":"台北市大安區建國南路2段151巷42號","Tel":"02 -27002209","Lat":25.0286579,"Lng":121.539635,"Area":null},{"Name":"麗泰藥局","Address":"台北市大安區復興南路2段151巷4號","Tel":"02 -27079595","Lat":25.0283241,"Lng":121.543968,"Area":null},{"Name":"兆安健保藥局","Address":"台北市大安區通化街139號","Tel":"02 -27363069","Lat":25.028965,"Lng":121.554054,"Area":null},{"Name":"杏一樂業藥局","Address":"台北市大安區樂業街162號","Tel":"02 -27383194","Lat":25.0195751,"Lng":121.55349,"Area":null},{"Name":"OK藥師藥局","Address":"台北市中山區興安街95號","Tel":"02 -25170068","Lat":25.0562019,"Lng":121.543335,"Area":null},{"Name":"昶青林森藥局","Address":"台北市中山區林森北路119巷52號","Tel":"02 -25639939","Lat":25.0502529,"Lng":121.526939,"Area":null},{"Name":"麗恩藥局","Address":"台北市中山區林森北路575之5號","Tel":"02 -25981982","Lat":25.0650616,"Lng":121.525818,"Area":null},{"Name":"建誠中西藥局","Address":"台北市中山區龍江路385之1號","Tel":"02 -25158608","Lat":25.0650311,"Lng":121.541107,"Area":null},{"Name":"誠意中西藥局","Address":"台北市中山區林森北路613號","Tel":"02 -25950951","Lat":25.0664368,"Lng":121.525879,"Area":null},{"Name":"長安藥局","Address":"台北市中山區長安東路2段171－3號","Tel":"02 -27772740","Lat":25.0484238,"Lng":121.541809,"Area":null},{"Name":"仁一藥局","Address":"台北市中山區林森北路520號","Tel":"02 -25711742","Lat":25.0623016,"Lng":121.525452,"Area":null},{"Name":"健全藥局","Address":"台北市松山區民權東路3段103巷20號","Tel":"02 -27128293","Lat":25.06324,"Lng":121.544907,"Area":null},{"Name":"李得安藥局","Address":"台北市松山區民生東路5段36巷8弄11號1樓","Tel":"02 -87871655","Lat":25.0573444,"Lng":121.559875,"Area":null},{"Name":"瑞昌大藥局","Address":"台北市松山區民權東路3段103巷10號","Tel":"02 -27151881","Lat":25.0629673,"Lng":121.544914,"Area":null},{"Name":"合生藥局","Address":"台北市松山區南京東路5段123巷45號1樓","Tel":"02 -27602932","Lat":25.0537643,"Lng":121.560684,"Area":null},{"Name":"上允藥局","Address":"台北市松山區民生東路5段78號","Tel":"02 -27696905","Lat":25.0583382,"Lng":121.559074,"Area":null},{"Name":"建東大藥局","Address":"台北市松山區三民路97號1樓","Tel":"02 -27676237","Lat":25.0571918,"Lng":121.5634,"Area":null},{"Name":"和諧藥局","Address":"台北市松山區民生東路5段148號2樓","Tel":"02 -27568580","Lat":25.0585079,"Lng":121.56221,"Area":null},{"Name":"德恩藥師藥局","Address":"台北市松山區八德路2段378號1樓","Tel":"02 -27782829","Lat":25.0479736,"Lng":121.546143,"Area":null},{"Name":"延壽藥局","Address":"台北市松山區延壽街327號","Tel":"02 -27685159","Lat":25.0568638,"Lng":121.560318,"Area":null},{"Name":"萬泰藥局","Address":"台北市松山區敦化北路222巷38號","Tel":"02 -27135891","Lat":25.05992,"Lng":121.547089,"Area":null},{"Name":"建如藥局","Address":"台北市大安區和平東路3段228巷11號1Ｆ","Tel":"02 -27331456","Lat":25.0217381,"Lng":121.554352,"Area":null},{"Name":"生百藥局","Address":"台北市大安區臨江街124號","Tel":"02 -27371011","Lat":25.0302448,"Lng":121.553894,"Area":null},{"Name":"台安藥局","Address":"台北市大安區和平東路2段353號1樓","Tel":"02 -27549099","Lat":25.0249119,"Lng":121.546188,"Area":null},{"Name":"生光藥局","Address":"台北市大安區忠孝東路3段248巷2號","Tel":"02 -27780862","Lat":25.0413342,"Lng":121.541138,"Area":null},{"Name":"佳美藥局","Address":"台北市大安區復興南路1段261之3號1樓","Tel":"02 -27054987","Lat":25.0363026,"Lng":121.5439,"Area":null},{"Name":"永康藥局","Address":"台北市大安區麗水街6之2號","Tel":"02 -23279362","Lat":25.033062,"Lng":121.528992,"Area":null},{"Name":"世中欣藥局","Address":"台北市大安區永康街2巷8號","Tel":"02 -23938947","Lat":25.0331326,"Lng":121.529396,"Area":null},{"Name":"加豐藥局","Address":"台北市大安區忠孝東路3段216巷3弄1號1樓","Tel":"02 -27219678","Lat":25.0413017,"Lng":121.540306,"Area":null},{"Name":"崇光藥局","Address":"台北市大安區忠孝東路3段305號7樓之3","Tel":"02 -27217958","Lat":25.0418739,"Lng":121.5435,"Area":null},{"Name":"大愛健康藥局","Address":"台北市大安區敦化南路2段63巷65號","Tel":"02 -27092156","Lat":25.0311279,"Lng":121.55201,"Area":null},{"Name":"平安藥師藥局","Address":"台北市大安區建國南路2段223號","Tel":"02 -27010057","Lat":25.0263729,"Lng":121.538055,"Area":null},{"Name":"博興藥局","Address":"台北市大安區四維路198巷28號","Tel":"02 -23256668","Lat":25.0265846,"Lng":121.54763,"Area":null},{"Name":"威康藥局","Address":"台北市大安區和平東路2段255之1號","Tel":"02 -27061149","Lat":25.0250645,"Lng":121.543785,"Area":null},{"Name":"昶青藥局","Address":"台北市大安區濟南路3段22之1號","Tel":"02 -27515678","Lat":25.0401249,"Lng":121.534554,"Area":null},{"Name":"杏一台北國泰藥局","Address":"台北市大安區仁愛路4段266巷15弄4號","Tel":"02 -27011785","Lat":25.03651,"Lng":121.553177,"Area":null},{"Name":"沛林東區生活藥粧藥局","Address":"台北市大安區敦化南路1段187巷17號","Tel":"02 -27763759","Lat":25.0426464,"Lng":121.55014,"Area":null},{"Name":"奇異果大安藥局","Address":"台北市大安區大安路1段190號","Tel":"02 -23250891","Lat":25.03576,"Lng":121.545921,"Area":null},{"Name":"躍獅敦和藥局","Address":"台北市大安區和平東路3段10號","Tel":"02 -23785767","Lat":25.0244675,"Lng":121.547142,"Area":null},{"Name":"太醫藥局","Address":"台北市大安區師大路12號","Tel":"02 -23685125","Lat":25.0257339,"Lng":121.528313,"Area":null},{"Name":"康維健保藥局","Address":"台北市大安區敦化南路1段329巷15號","Tel":"02 -27000120","Lat":25.0342655,"Lng":121.5491,"Area":null},{"Name":"錦西春天生活藥局","Address":"台北市中山區錦西街10號","Tel":"02 -25312658","Lat":25.0602131,"Lng":121.521553,"Area":null},{"Name":"盛康藥局","Address":"台北市中山區吉林路399號","Tel":"02 -25969580","Lat":25.06586,"Lng":121.530487,"Area":null},{"Name":"中山藥局","Address":"臺北市中山區林森北路128號","Tel":"02 -25236979","Lat":25.0512753,"Lng":121.525032,"Area":null},{"Name":"中興藥局","Address":"台北市中山區長安東路2段226號","Tel":"02 -27774628","Lat":25.04808,"Lng":121.542732,"Area":null},{"Name":"保德明水藥局","Address":"台北市中山區北安路608巷4弄1號","Tel":"02 -85097769","Lat":25.0819149,"Lng":121.549286,"Area":null},{"Name":"廣福中西藥局","Address":"台北市中山區錦州街406號","Tel":"02 -25189489","Lat":25.0600414,"Lng":121.541656,"Area":null},{"Name":"錦康活力藥局","Address":"台北市中山區民生東路2段147巷11弄1號地下","Tel":"02 -25158282","Lat":25.0600643,"Lng":121.534973,"Area":null},{"Name":"大直健康藥局","Address":"台北市中山區北安路591號","Tel":"02 -25323310","Lat":25.0819588,"Lng":121.548607,"Area":null},{"Name":"娸淇藥局","Address":"台北市中山區伊通街95號","Tel":"02 -25082762","Lat":25.0531445,"Lng":121.534996,"Area":null},{"Name":"和康健保藥局","Address":"台北市內湖區文德路66巷41號","Tel":"02 -27997202","Lat":25.0772381,"Lng":121.581833,"Area":null},{"Name":"葫光藥局","Address":"台北市內湖區康寧路3段54巷6號","Tel":"02 -26336611","Lat":25.0716782,"Lng":121.609055,"Area":null},{"Name":"耀元藥局","Address":"台北市內湖區康樂街150號","Tel":"02 -26337369","Lat":25.0725765,"Lng":121.619225,"Area":null},{"Name":"旭村藥局","Address":"台北市南港區興華路112號","Tel":"02 -27820948","Lat":25.0566311,"Lng":121.605545,"Area":null},{"Name":"裕成藥局","Address":"台北市南港區玉成街166巷13號","Tel":"02 -27851227","Lat":25.0443916,"Lng":121.583458,"Area":null},{"Name":"新錦安藥局","Address":"台北市南港區南港路3段34號","Tel":"02 -27825218","Lat":25.0543251,"Lng":121.592171,"Area":null},{"Name":"仁泰藥局","Address":"台北市南港區同德路28號","Tel":"02 -27855464","Lat":25.045084,"Lng":121.584106,"Area":null},{"Name":"加欣藥局","Address":"台北市南港區南港路2段26號","Tel":"02 -27836222","Lat":25.0543251,"Lng":121.605545,"Area":null},{"Name":"祥安藥局","Address":"台北市南港區中坡南路25號","Tel":"02 -26547322","Lat":25.0433331,"Lng":121.58316,"Area":null},{"Name":"麗康藥局","Address":"台北市南港區同德路51號","Tel":"02 -26515236","Lat":25.0456657,"Lng":121.584694,"Area":null},{"Name":"安郁藥局","Address":"台北市松山區八德路3段12巷51弄16號1樓","Tel":"02 -25774551","Lat":25.0460529,"Lng":121.551178,"Area":null},{"Name":"榮星藥局","Address":"台北市松山區南京東路4段133巷5弄1號","Tel":"02 -27124696","Lat":25.052166,"Lng":121.555214,"Area":null},{"Name":"安世藥局","Address":"台北市松山區南京東路4段133巷5弄9號","Tel":"02 -27133405","Lat":25.05203,"Lng":121.555511,"Area":null},{"Name":"明一藥局","Address":"台北市松山區南京東路5段59巷28弄25號1樓","Tel":"02 -27691654","Lat":25.052742,"Lng":121.558144,"Area":null},{"Name":"傑安藥局","Address":"台北市松山區八德路2段437巷7弄8號1樓","Tel":"02 -27524155","Lat":25.0491486,"Lng":121.547295,"Area":null},{"Name":"仁弘藥局","Address":"台北市松山區民生東路3段113巷25弄6號1樓","Tel":"02 -27136764","Lat":25.0594025,"Lng":121.546562,"Area":null},{"Name":"益華藥局","Address":"台北市松山區民生東路5段138巷6號","Tel":"02 -27624898","Lat":25.05843,"Lng":121.561516,"Area":null},{"Name":"德靈藥局","Address":"台北市松山區富錦街548號","Tel":"02 -27646998","Lat":25.06174,"Lng":121.566689,"Area":null},{"Name":"康祥藥局","Address":"台北市大安區忠孝東路4段216巷21號","Tel":"02 -27817891","Lat":25.04016,"Lng":121.55304,"Area":null},{"Name":"高特敦南藥局","Address":"台北市大安區信義路4段115號","Tel":"092-0318305","Lat":25.03351,"Lng":121.548286,"Area":null},{"Name":"慈仁藥局","Address":"台北市大同區歸綏街261號1樓","Tel":"02 -25572733","Lat":25.0583363,"Lng":121.510162,"Area":null},{"Name":"三省大藥局","Address":"台北市大同區民族西路303巷19號1樓","Tel":"02 -25353536","Lat":25.0692616,"Lng":121.510223,"Area":null},{"Name":"三銘大藥局","Address":"台北市大同區迪化街1段80號","Tel":"02 -25583392","Lat":25.0558128,"Lng":121.509888,"Area":null},{"Name":"柯藥局","Address":"台北市大同區重慶北路3段335巷6號","Tel":"02 -25948515","Lat":25.0744762,"Lng":121.514343,"Area":null},{"Name":"時春藥局","Address":"台北市大同區赤峰街4號","Tel":"02 -25597918","Lat":25.0535946,"Lng":121.519119,"Area":null},{"Name":"裕仁藥局","Address":"台北市大同區迪化街2段270號－1","Tel":"02 -25910064","Lat":25.0707169,"Lng":121.511589,"Area":null},{"Name":"建祥藥局","Address":"台北市大同區寧夏路17號、17－1號","Tel":"02 -25556476","Lat":25.0548439,"Lng":121.515045,"Area":null},{"Name":"立生藥局","Address":"台北市大同區延平北路3段61號－3","Tel":"02 -25925727","Lat":25.0657024,"Lng":121.511177,"Area":null},{"Name":"正利民藥局","Address":"台北市大同區延平北路3段105號","Tel":"02 -25924842","Lat":25.0680046,"Lng":121.510979,"Area":null},{"Name":"泰元藥局","Address":"台北市大同區哈密街91號","Tel":"02 -25914592","Lat":25.0730648,"Lng":121.514641,"Area":null},{"Name":"保慶藥局","Address":"台北市大同區保安街21號","Tel":"02 -25538988","Lat":25.0592442,"Lng":121.513,"Area":null},{"Name":"快安藥局","Address":"台北市大同區南京西路282、284號","Tel":"02 -25561925","Lat":25.053484,"Lng":121.514595,"Area":null},{"Name":"得意藥師藥局","Address":"台北市大同區延平北路2段229號","Tel":"02 -25534294","Lat":25.0602875,"Lng":121.511513,"Area":null},{"Name":"健康美藥局","Address":"台北市大同區民族西路165號","Tel":"02 -25976707","Lat":25.0687523,"Lng":121.515549,"Area":null},{"Name":"宏泰藥師藥局","Address":"台北市大同區酒泉街131號","Tel":"02 -25957025","Lat":25.0721111,"Lng":121.514481,"Area":null},{"Name":"儷安藥局","Address":"台北市大同區錦西街53巷16號","Tel":"02 -25578033","Lat":25.0607128,"Lng":121.515854,"Area":null},{"Name":"富康藥局","Address":"台北市大同區延平北路2段126號","Tel":"02 -25537782","Lat":25.0573463,"Lng":121.511452,"Area":null},{"Name":"春鄰藥局","Address":"台北市大同區長安西路35號","Tel":"02 -25492000","Lat":25.0504017,"Lng":121.519691,"Area":null},{"Name":"佳禾藥局","Address":"台北市大同區大龍街262號","Tel":"02 -25953806","Lat":25.0705967,"Lng":121.515816,"Area":null},{"Name":"躍獅雙蓮藥局","Address":"台北市大同區涼州街4號","Tel":"02 -25537551","Lat":25.06069,"Lng":121.514076,"Area":null},{"Name":"延平新聖安藥局","Address":"台北市大同區延平北路3段35號","Tel":"02 -25923399","Lat":25.0647869,"Lng":121.511208,"Area":null},{"Name":"德芳藥局","Address":"台北市大同區民生西路91號","Tel":"02 -25576869","Lat":25.0576077,"Lng":121.519386,"Area":null},{"Name":"旭豐藥局","Address":"台北市大同區昌吉街96號","Tel":"02 -25853880","Lat":25.0658035,"Lng":121.515137,"Area":null},{"Name":"酒泉春天藥局","Address":"台北市大同區酒泉街94號、94號2樓","Tel":"02 -25977932","Lat":25.0718746,"Lng":121.514565,"Area":null},{"Name":"中興聯合藥局","Address":"台北市大同區鄭州路127號（實際營業地址：1樓）","Tel":"02 -25502952","Lat":25.050375,"Lng":121.510796,"Area":null},{"Name":"躍獅遠東藥局","Address":"台北市大同區南京西路374號（實際營業地址：1樓）","Tel":"02 -25594835","Lat":25.05369,"Lng":121.510658,"Area":null},{"Name":"大同民生藥局","Address":"台北市大同區民生西路128，130號","Tel":"02 -25558886","Lat":25.0573349,"Lng":121.519119,"Area":null},{"Name":"百源堂大藥局","Address":"台北市中山區長安東路2段47－5號","Tel":"02 -25364362","Lat":25.0486031,"Lng":121.532242,"Area":null},{"Name":"名祥藥局","Address":"台北市中山區龍江路166號","Tel":"02 -25036265","Lat":25.0550289,"Lng":121.540276,"Area":null},{"Name":"大信藥局","Address":"台北市中山區林森北路159巷6號","Tel":"02 -25719080","Lat":25.0516567,"Lng":121.525513,"Area":null},{"Name":"定好大藥局","Address":"台北市中山區農安街125巷34號","Tel":"02 -25946788","Lat":25.0659771,"Lng":121.529709,"Area":null},{"Name":"明美藥局","Address":"台北市中山區長春路69號","Tel":"02 -25365419","Lat":25.055048,"Lng":121.5266,"Area":null},{"Name":"順泰藥局","Address":"台北市中山區錦州街266號","Tel":"02 -25038916","Lat":25.0602188,"Lng":121.534721,"Area":null},{"Name":"滿順藥局","Address":"台北市中山區伊通街54號1樓","Tel":"02 -25075283","Lat":25.051445,"Lng":121.534637,"Area":null},{"Name":"長生藥局","Address":"台北市中山區松江路362巷55號1樓","Tel":"02 -25816210","Lat":25.0620613,"Lng":121.531258,"Area":null},{"Name":"優豐藥局","Address":"台北市中山區民生東路1段32號","Tel":"02 -25602565","Lat":25.0578785,"Lng":121.524155,"Area":null},{"Name":"能康藥局","Address":"台北市中山區長春路46號","Tel":"02 -25429426","Lat":25.0548248,"Lng":121.5256,"Area":null},{"Name":"貢玄藥局","Address":"台北市中山區錦州街207號","Tel":"02 -25637847","Lat":25.060442,"Lng":121.531853,"Area":null},{"Name":"阿里藥局","Address":"台北市中山區錦州街251號","Tel":"02 -25020638","Lat":25.06046,"Lng":121.534286,"Area":null},{"Name":"榮昌藥局","Address":"台北市中山區雙城街17－3號","Tel":"02 -25964593","Lat":25.0646229,"Lng":121.524414,"Area":null},{"Name":"華友藥局","Address":"台北市中山區龍江路356巷27號－1","Tel":"02 -25007159","Lat":25.0661125,"Lng":121.539833,"Area":null},{"Name":"良佑藥局","Address":"台北市中山區撫順街6－2號1樓","Tel":"02 -25916402","Lat":25.0636883,"Lng":121.521461,"Area":null},{"Name":"立大藥局","Address":"台北市中山區吉林路144巷14號","Tel":"02 -25313844","Lat":25.0559273,"Lng":121.52951,"Area":null},{"Name":"武璋大藥局","Address":"台北市中山區伊通街97號之2","Tel":"02 -25072026","Lat":25.05318,"Lng":121.535,"Area":null},{"Name":"長青藥局","Address":"台北市中山區興安街55號1樓","Tel":"02 -25053160","Lat":25.0562878,"Lng":121.541847,"Area":null},{"Name":"晏晟藥局","Address":"台北市中山區林森北路625號","Tel":"02 -25851445","Lat":25.0669842,"Lng":121.525894,"Area":null},{"Name":"大直藥局","Address":"台北市中山區北安路617號1樓","Tel":"02 -25320522","Lat":25.08278,"Lng":121.548805,"Area":null},{"Name":"美日藥局","Address":"台北市中山區天津街66號1樓","Tel":"02 -25631662","Lat":25.0514011,"Lng":121.52327,"Area":null},{"Name":"人人藥局","Address":"台北市中山區吉林路267號1樓","Tel":"02 -25630789","Lat":25.0620823,"Lng":121.530418,"Area":null},{"Name":"文德藥局","Address":"台北市中山區龍江路356巷19號1樓","Tel":"02 -25181178","Lat":25.0661087,"Lng":121.540085,"Area":null},{"Name":"永直藥局","Address":"台北市中山區北安路595巷2弄6號","Tel":"02 -85098059","Lat":25.0819111,"Lng":121.5483,"Area":null},{"Name":"展佑藥局","Address":"台北市中山區長春路146－1號","Tel":"02 -25232803","Lat":25.0547218,"Lng":121.5317,"Area":null},{"Name":"蓁榛健康生活藥局","Address":"台北市中山區合江街100－2號1樓","Tel":"02 -25099333","Lat":25.0585079,"Lng":121.539017,"Area":null},{"Name":"中崙藥局","Address":"台北市中山區八德路2段307號","Tel":"02 -27114971","Lat":25.0474014,"Lng":121.542656,"Area":null},{"Name":"祥泰藥局","Address":"台北市中山區林森北路136號","Tel":"02 -25313097","Lat":25.051466,"Lng":121.524986,"Area":null},{"Name":"得康藥局","Address":"台北市中山區林森北路405號","Tel":"02 -25814889","Lat":25.0594845,"Lng":121.525688,"Area":null},{"Name":"嘉恩藥局","Address":"台北市中山區錦州街321號","Tel":"02 -25181418","Lat":25.0603523,"Lng":121.5386,"Area":null},{"Name":"樂活苑藥局","Address":"台北市中山區北安路546號1樓","Tel":"02 -25323296","Lat":25.0801182,"Lng":121.548019,"Area":null},{"Name":"大愛藥師藥局","Address":"台北市中山區吉林路255號1樓","Tel":"02 -25424723","Lat":25.06167,"Lng":121.530426,"Area":null},{"Name":"久大藥局","Address":"台北市中山區林森北路480號","Tel":"02 -25111594","Lat":25.0612659,"Lng":121.525421,"Area":null},{"Name":"專心藥局","Address":"台北市中山區伊通街112－2號","Tel":"02 -25155847","Lat":25.0542259,"Lng":121.534737,"Area":null},{"Name":"康林藥局","Address":"台北市中山區興安街105號","Tel":"02 -25171867","Lat":25.0562325,"Lng":121.543808,"Area":null},{"Name":"民生興安藥局","Address":"台北市中山區民生東路3段90－1號","Tel":"02 -25018310","Lat":25.0574532,"Lng":121.543579,"Area":null},{"Name":"啟美藥師藥局","Address":"台北市中山區錦州街282號","Tel":"02 -25178032","Lat":25.0602226,"Lng":121.535271,"Area":null},{"Name":"華康藥局","Address":"台北市中山區民生西路3巷2之1號","Tel":"02 -25211772","Lat":25.0592442,"Lng":121.521706,"Area":null},{"Name":"龍江藥局","Address":"台北市中山區龍江路356巷14號","Tel":"02 -25023724","Lat":25.065876,"Lng":121.540291,"Area":null},{"Name":"晴光藥局","Address":"台北市中山區農安街23之2號","Tel":"02 -25951393","Lat":25.0650387,"Lng":121.524437,"Area":null},{"Name":"德惠藥局","Address":"台北市中山區德惠街122號","Tel":"02 -25971131","Lat":25.0664749,"Lng":121.529976,"Area":null},{"Name":"金生藥局","Address":"台北市中山區長安東路2段167－1號","Tel":"02 -87729808","Lat":25.0484161,"Lng":121.540672,"Area":null},{"Name":"興康源藥局","Address":"台北市中山區中山北路1段140巷8號","Tel":"02 -25311248","Lat":25.0561771,"Lng":121.522995,"Area":null},{"Name":"富宥康藥局","Address":"臺北市中山區北安路608巷5弄22號","Tel":"02 -25325277","Lat":25.08254,"Lng":121.549637,"Area":null},{"Name":"淮濟藥師藥局","Address":"台北市中山區北安路570號〈實際營業地址：1樓及地下1樓〉","Tel":"02 -85098636","Lat":25.080761,"Lng":121.548561,"Area":null},{"Name":"逸帆藥局","Address":"台北市中山區錦州街189號","Tel":"02 -25222323","Lat":25.0604782,"Lng":121.531136,"Area":null},{"Name":"正傑健保藥局","Address":"台北市中山區長安東路2段181號","Tel":"02 -27310181","Lat":25.0484447,"Lng":121.542557,"Area":null},{"Name":"大直小太陽藥局","Address":"台北市中山區北安路607之1號","Tel":"02 -85093208","Lat":25.0824013,"Lng":121.548759,"Area":null},{"Name":"王中興藥局","Address":"台北市中山區龍江路273號","Tel":"02 -25034281","Lat":25.0595531,"Lng":121.540825,"Area":null},{"Name":"美康正康藥局","Address":"台北市中山區北安路616之1號、618號2樓之1","Tel":"02 -25323077","Lat":25.08238,"Lng":121.549057,"Area":null},{"Name":"大直永安藥局","Address":"台北市中山區北安路567之2號","Tel":"02 -25332125","Lat":25.0806656,"Lng":121.5481,"Area":null},{"Name":"元宏藥局","Address":"台北市中山區北安路458巷41弄49號","Tel":"02 -25339728","Lat":25.07939,"Lng":121.546463,"Area":null},{"Name":"農安藥局","Address":"台北市中山區農安街18之1號","Tel":"02 -25959293","Lat":25.0648,"Lng":121.524635,"Area":null},{"Name":"東東藥局","Address":"台北市中山區長春路257之2號","Tel":"02 -25031730","Lat":25.0547848,"Lng":121.540649,"Area":null},{"Name":"聖晨藥局","Address":"台北市中山區農安街140號","Tel":"02 -25960359","Lat":25.064703,"Lng":121.532112,"Area":null},{"Name":"錦州春天生活藥局","Address":"台北市中山區錦州街213號、213號2樓","Tel":"02 -25213586","Lat":25.06041,"Lng":121.532135,"Area":null},{"Name":"杏一龍錦藥局","Address":"台北市中山區龍江路264號","Tel":"02 -25174618","Lat":25.0601215,"Lng":121.540581,"Area":null},{"Name":"大樹龍江藥局","Address":"台北市中山區龍江路242號","Tel":"02 -25035666","Lat":25.05889,"Lng":121.540527,"Area":null},{"Name":"中華藥局","Address":"台北市中山區農安街45之1號","Tel":"02 -25997888","Lat":25.0649834,"Lng":121.52655,"Area":null},{"Name":"農安盛康藥局","Address":"台北市中山區農安街267號","Tel":"02 -25038205","Lat":25.0648422,"Lng":121.535805,"Area":null},{"Name":"康廷藥局","Address":"台北市中山區北安路611號","Tel":"02 -25335890","Lat":25.08253,"Lng":121.548759,"Area":null},{"Name":"佳頤中西藥局","Address":"台北市中山區長春路147之1號","Tel":"02 -25641479","Lat":25.0550556,"Lng":121.532349,"Area":null},{"Name":"康銓藥局","Address":"台北市中山區農安街174號","Tel":"02 -25039393","Lat":25.0645485,"Lng":121.534668,"Area":null},{"Name":"禾全藥局","Address":"台北市中山區龍江路332號","Tel":"02 -25165721","Lat":25.0653076,"Lng":121.540871,"Area":null},{"Name":"葛蘭素藥局","Address":"台北市內湖區內湖路2段103巷128號1樓","Tel":"02 -27997824","Lat":25.0844975,"Lng":121.580826,"Area":null},{"Name":"泰成藥局","Address":"台北市內湖區內湖路3段135號1樓","Tel":"02 -27921231","Lat":25.08684,"Lng":121.589836,"Area":null},{"Name":"赫得藥局","Address":"台北市內湖區康樂街72巷17弄4號1Ｆ","Tel":"02 -26328642","Lat":25.0697384,"Lng":121.617821,"Area":null},{"Name":"富盛藥局","Address":"台北市內湖區成功路4段61巷25弄12號1樓","Tel":"02 -27908667","Lat":25.0802975,"Lng":121.59269,"Area":null},{"Name":"永安藥局","Address":"台北市內湖區文德路210巷30弄48號","Tel":"02 -26586658","Lat":25.0772667,"Lng":121.585144,"Area":null},{"Name":"富山藥局","Address":"台北市內湖區麗山街364巷2號1樓","Tel":"02 -27996446","Lat":25.08168,"Lng":121.572876,"Area":null},{"Name":"明湖藥局","Address":"台北市內湖區東湖路7巷27號1Ｆ","Tel":"02 -26313515","Lat":25.0697575,"Lng":121.612541,"Area":null},{"Name":"清白藥局","Address":"台北市內湖區東湖路108號","Tel":"02 -26305743","Lat":25.0682964,"Lng":121.615593,"Area":null},{"Name":"宏光藥局","Address":"台北市內湖區成功路2段221號1樓","Tel":"02 -27919068","Lat":25.0673943,"Lng":121.590919,"Area":null},{"Name":"杏佳藥局","Address":"台北市內湖區康寧路1段51號","Tel":"02 -27915726","Lat":25.0790844,"Lng":121.594788,"Area":null},{"Name":"安康藥局","Address":"台北市內湖區安康路482號","Tel":"02 -26327675","Lat":25.0678978,"Lng":121.615952,"Area":null},{"Name":"至康藥局","Address":"台北市內湖區內湖路1段737巷19弄1號","Tel":"02 -26580022","Lat":25.0793018,"Lng":121.5786,"Area":null},{"Name":"文新藥局","Address":"台北市內湖區文湖街7－5號1樓","Tel":"02 -87978865","Lat":25.0854187,"Lng":121.55986,"Area":null},{"Name":"盧狄聯合藥局","Address":"台北市內湖區康寧路3段189巷57號","Tel":"02 -26308897","Lat":25.0712929,"Lng":121.612892,"Area":null},{"Name":"康信藥局","Address":"台北市內湖區民權東路6段296巷29號","Tel":"02 -26342088","Lat":25.0720062,"Lng":121.606232,"Area":null},{"Name":"維安藥局","Address":"台北市內湖區成功路3段174巷23號","Tel":"02 -27944520","Lat":25.0815029,"Lng":121.590729,"Area":null},{"Name":"康健藥局","Address":"台北市內湖區康樂街80號","Tel":"02 -26305825","Lat":25.070219,"Lng":121.618835,"Area":null},{"Name":"匯安藥局","Address":"台北市內湖區內湖路1段703之1號","Tel":"02 -26579255","Lat":25.0797024,"Lng":121.577477,"Area":null},{"Name":"富康東湖藥局","Address":"台北市內湖區東湖路119巷49弄16號","Tel":"02 -26323222","Lat":25.06994,"Lng":121.617027,"Area":null},{"Name":"高昱藥局","Address":"台北市內湖區陽光街321巷26號2樓之15","Tel":"02 -87519962","Lat":25.0723839,"Lng":121.578621,"Area":null},{"Name":"樂活藥師藥局","Address":"台北市內湖區內湖路2段368號","Tel":"02 -27968052","Lat":25.082304,"Lng":121.591026,"Area":null},{"Name":"樂康藥妝藥局","Address":"台北市內湖區文德路117號","Tel":"02 -26562110","Lat":25.07872,"Lng":121.584045,"Area":null},{"Name":"思恩藥局","Address":"台北市內湖區成功路4段61巷26號","Tel":"02 -27965808","Lat":25.0812359,"Lng":121.593239,"Area":null},{"Name":"早安元氣藥局","Address":"台北市內湖區成功路4段53號1樓","Tel":"02 -27925994","Lat":25.0816364,"Lng":121.59214,"Area":null},{"Name":"展恩藥局","Address":"台北市內湖區民權東路6段136巷4號","Tel":"02 -27953041","Lat":25.0686321,"Lng":121.587677,"Area":null},{"Name":"壹零捌藥局","Address":"台北市內湖區成功路4段344號","Tel":"02 -27910061","Lat":25.0848274,"Lng":121.599617,"Area":null},{"Name":"瑞光藥局","Address":"台北市內湖區瑞光路212號","Tel":"02 -87513365","Lat":25.07526,"Lng":121.576172,"Area":null},{"Name":"昇龍藥局","Address":"台北市內湖區東湖路151號","Tel":"02 -26316783","Lat":25.0681419,"Lng":121.61734,"Area":null},{"Name":"桔子藥局","Address":"台北市內湖區內湖路2段333號","Tel":"02 -27930052","Lat":25.0833111,"Lng":121.591576,"Area":null},{"Name":"晟安藥局","Address":"台北市內湖區金龍路135號","Tel":"02 -87919320","Lat":25.0859623,"Lng":121.590225,"Area":null},{"Name":"西湖藥局","Address":"台北市內湖區內湖路1段355號","Tel":"02 -26279291","Lat":25.0822144,"Lng":121.569267,"Area":null},{"Name":"宜昇優良藥局","Address":"台北市內湖區康寧路3段165巷23弄5號","Tel":"02 -26327817","Lat":25.07159,"Lng":121.6121,"Area":null},{"Name":"躍獅寶湖藥局","Address":"台北市內湖區民權東路6段123巷28號","Tel":"02 -87928335","Lat":25.0701,"Lng":121.592789,"Area":null},{"Name":"傑昇藥局","Address":"台北市內湖區內湖路2段227號","Tel":"02 -27925957","Lat":25.0818768,"Lng":121.589043,"Area":null},{"Name":"新安健保藥局","Address":"台北市內湖區新明路402號","Tel":"02 -27932289","Lat":25.0547676,"Lng":121.579948,"Area":null},{"Name":"仕德安藥局","Address":"台北市內湖區新明路210號","Tel":"02 -27961683","Lat":25.05714,"Lng":121.584618,"Area":null},{"Name":"躍獅東湖藥局","Address":"台北市內湖區金湖路378號","Tel":"02 -26347983","Lat":25.0736332,"Lng":121.6047,"Area":null},{"Name":"大內湖藥局","Address":"台北市內湖區成功路4段12號","Tel":"02 -27956286","Lat":25.0811615,"Lng":121.591125,"Area":null},{"Name":"樂齡藥師藥局","Address":"台北市內湖區內湖路3段103號","Tel":"02 -27919707","Lat":25.0864048,"Lng":121.590851,"Area":null},{"Name":"喜越藥局","Address":"台北市內湖區內湖路1段285巷59弄7號","Tel":"02 -26271955","Lat":25.0837841,"Lng":121.567169,"Area":null},{"Name":"禾康藥局","Address":"台北市內湖區內湖路1段296號","Tel":"02 -26562669","Lat":25.081955,"Lng":121.568504,"Area":null},{"Name":"江南大藥局","Address":"台北市內湖區文德路22巷9弄56號","Tel":"02 -26595430","Lat":25.0766468,"Lng":121.579124,"Area":null},{"Name":"躍獅大湖藥局","Address":"台北市內湖區成功路4段329號","Tel":"02 -27945376","Lat":25.0844688,"Lng":121.599167,"Area":null},{"Name":"澴山藥局","Address":"台北市內湖區環山路1段4號","Tel":"02 -87978793","Lat":25.0829067,"Lng":121.565292,"Area":null},{"Name":"瑞暉藥局","Address":"台北市內湖區文德路105號","Tel":"02 -26276828","Lat":25.0787849,"Lng":121.583633,"Area":null},{"Name":"內湖藥局","Address":"台北市內湖區康寧路1段116號","Tel":"02 -27940545","Lat":25.07945,"Lng":121.59333,"Area":null},{"Name":"躍獅康成藥局","Address":"台北市內湖區成功路4段61巷11號","Tel":"02 -87922031","Lat":25.081377,"Lng":121.592865,"Area":null},{"Name":"富康文德藥局","Address":"台北市內湖區文德路22巷27弄4號","Tel":"02 -26272000","Lat":25.0765839,"Lng":121.580048,"Area":null},{"Name":"躍獅麗湖藥局","Address":"台北市內湖區內湖路1段401之1號","Tel":"02 -26276160","Lat":25.0818768,"Lng":121.57045,"Area":null},{"Name":"晶龍藥局","Address":"台北市內湖區成功路4段218號","Tel":"02 -27956255","Lat":25.0846138,"Lng":121.596077,"Area":null},{"Name":"佑全內湖康寧藥局","Address":"台北市內湖區康寧路3段39號、39號2樓、41號、43號","Tel":"02 -26346578","Lat":25.0726528,"Lng":121.607742,"Area":null},{"Name":"松達藥師藥局","Address":"台北市內湖區內湖路1段285巷65弄9號","Tel":"02 -26272167","Lat":25.0844154,"Lng":121.567368,"Area":null},{"Name":"安安藥局","Address":"台北市內湖區康寧路1段42號","Tel":"02 -87912187","Lat":25.0802536,"Lng":121.591835,"Area":null},{"Name":"杏一港墘藥局","Address":"台北市內湖區港墘路83號","Tel":"02 -87978746","Lat":25.0807381,"Lng":121.577995,"Area":null},{"Name":"原大藥局","Address":"台北市內湖區內湖路1段737巷50弄5號","Tel":"02 -26596358","Lat":25.0806446,"Lng":121.578842,"Area":null},{"Name":"親親藥局","Address":"台北市南港區玉成街140巷7號1樓","Tel":"02 -26537635","Lat":25.0446911,"Lng":121.583183,"Area":null},{"Name":"上丞藥師藥局","Address":"台北市南港區成福路10號1樓","Tel":"02 -26535589","Lat":25.045557,"Lng":121.585938,"Area":null},{"Name":"健園藥局","Address":"台北市南港區研究院路1段19號1樓","Tel":"02 -27851567","Lat":25.0540218,"Lng":121.616631,"Area":null},{"Name":"忠孝藥局","Address":"台北市南港區成福路16號","Tel":"02 -27862829","Lat":25.0455761,"Lng":121.586021,"Area":null},{"Name":"新東發藥局","Address":"台北市南港區成福路198號","Tel":"02 -27855190","Lat":25.040905,"Lng":121.588234,"Area":null},{"Name":"富康活力藥局","Address":"台北市南港區研究院路1段101巷8號","Tel":"02 -27828810","Lat":25.05183,"Lng":121.616516,"Area":null},{"Name":"亞博藥師藥局","Address":"台北市南港區興華路81號","Tel":"02 -27838090","Lat":25.055481,"Lng":121.606018,"Area":null},{"Name":"佳龍藥局","Address":"台北市南港區研究院路2段80號","Tel":"02 -27885951","Lat":25.04537,"Lng":121.6152,"Area":null},{"Name":"湳港藥局","Address":"台北市南港區研究院路1段101巷12號","Tel":"02 -27892200","Lat":25.0517731,"Lng":121.616661,"Area":null},{"Name":"進慧藥局","Address":"台北市南港區研究院路1段163號","Tel":"02 -27887049","Lat":25.050272,"Lng":121.615753,"Area":null},{"Name":"儀安健保藥局","Address":"台北市南港區同德路74號","Tel":"02 -27859893","Lat":25.045681,"Lng":121.5854,"Area":null},{"Name":"泓安藥局","Address":"臺北市南港區興華路75號","Tel":"02 -27861083","Lat":25.0551834,"Lng":121.60611,"Area":null},{"Name":"健涵藥局","Address":"台北市南港區舊莊街1段147號","Tel":"02 -27837285","Lat":25.0399055,"Lng":121.620468,"Area":null},{"Name":"南港藥局","Address":"台北市南港區南港路一段166號","Tel":"02 -27829137","Lat":25.055418,"Lng":121.611748,"Area":null},{"Name":"順翔藥局","Address":"台北市南港區研究院路2段170號","Tel":"02 -27824332","Lat":25.0378151,"Lng":121.616821,"Area":null},{"Name":"景星藥局","Address":"台北市南港區南港路3段26號","Tel":"02 -27838816","Lat":25.0543537,"Lng":121.5924,"Area":null},{"Name":"成恩藥局","Address":"台北市南港區成福路23號","Tel":"02 -27856602","Lat":25.04475,"Lng":121.586761,"Area":null},{"Name":"小藥師健保藥局","Address":"台北市南港區福德街320之1號","Tel":"02 -27867002","Lat":25.03948,"Lng":121.58786,"Area":null},{"Name":"心亮藥局","Address":"台北市南港區玉成街66之7號","Tel":"02 -27881677","Lat":25.0467148,"Lng":121.582123,"Area":null},{"Name":"杏安藥局","Address":"台北市南港區昆陽街140巷16號","Tel":"02 -27864119","Lat":25.0497284,"Lng":121.593781,"Area":null},{"Name":"勝安藥局","Address":"台北市南港區舊莊街1段165號","Tel":"02 -27828450","Lat":25.0395126,"Lng":121.621124,"Area":null},{"Name":"杏一中坡藥局","Address":"台北市南港區中坡南路33號、35號","Tel":"02 -27827418","Lat":25.0431728,"Lng":121.583389,"Area":null},{"Name":"成福大藥局","Address":"臺北市南港區成福路8號","Tel":"02 -27859221","Lat":25.0456085,"Lng":121.5859,"Area":null},{"Name":"心心藥局","Address":"臺北市南港區研究院路2段76號","Tel":"02 -27862586","Lat":25.045496,"Lng":121.615128,"Area":null},{"Name":"南風藥局","Address":"台北市士林區美崙街19號1樓","Tel":"02 -28320375","Lat":25.0971661,"Lng":121.523308,"Area":null},{"Name":"菁安藥局","Address":"台北市士林區美侖街13號1樓","Tel":"02 -28323951","Lat":25.0971451,"Lng":121.523407,"Area":null},{"Name":"新興藥局","Address":"台北市士林區德行西路117號","Tel":"02 -28362643","Lat":25.10397,"Lng":121.5206,"Area":null},{"Name":"坤成泰藥局","Address":"台北市士林區大南路412號","Tel":"02 -28813903","Lat":25.0899563,"Lng":121.516182,"Area":null},{"Name":"杏城藥局","Address":"台北市士林區天母東路24號","Tel":"02 -28725144","Lat":25.1176186,"Lng":121.532455,"Area":null},{"Name":"佳赫藥局","Address":"台北市士林區文昌路44號","Tel":"02 -28367202","Lat":25.0956326,"Lng":121.521553,"Area":null},{"Name":"文祥藥局","Address":"台北市士林區光華路26巷2弄2號","Tel":"02 -28623487","Lat":25.1375065,"Lng":121.542084,"Area":null},{"Name":"建芳藥局","Address":"台北市士林區德行東路148號","Tel":"02 -28357172","Lat":25.1080074,"Lng":121.529572,"Area":null},{"Name":"慈航藥局","Address":"台北市士林區文林路441號","Tel":"02 -28815988","Lat":25.0948524,"Lng":121.524544,"Area":null},{"Name":"士林三安藥局","Address":"台北市士林區大南路11號","Tel":"02 -28812631","Lat":25.0889759,"Lng":121.525993,"Area":null},{"Name":"啟宏藥局","Address":"台北市士林區大東路90－1號1樓","Tel":"02 -28825811","Lat":25.0914612,"Lng":121.525658,"Area":null},{"Name":"博惠藥局","Address":"台北巿士林區華榮街16號","Tel":"02 -28320379","Lat":25.09551,"Lng":121.5236,"Area":null},{"Name":"有德堂大藥局","Address":"台北市士林區中山北路6段227號","Tel":"02 -28318387","Lat":25.10885,"Lng":121.525093,"Area":null},{"Name":"太安藥局","Address":"台北市士林區延平北路5段157號","Tel":"02 -28111468","Lat":25.0825119,"Lng":121.510117,"Area":null},{"Name":"三原藥局","Address":"台北市士林區延平北路5段293號","Tel":"02 -28111888","Lat":25.0858936,"Lng":121.509415,"Area":null},{"Name":"田倉藥局","Address":"台北市士林區士東路124號","Tel":"02 -88662188","Lat":25.1121674,"Lng":121.530144,"Area":null},{"Name":"日康藥局","Address":"台北市士林區士東路12號1樓","Tel":"02 -28358558","Lat":25.1117535,"Lng":121.526657,"Area":null},{"Name":"安寧藥局","Address":"台北市士林區劍潭路91號","Tel":"02 -28803319","Lat":25.082901,"Lng":121.5199,"Area":null},{"Name":"環安藥局","Address":"台北市士林區大南路244號1樓","Tel":"02 -28828478","Lat":25.0886211,"Lng":121.520546,"Area":null},{"Name":"加赫藥局","Address":"台北市士林區文昌路76號","Tel":"02 -28336362","Lat":25.0964413,"Lng":121.521233,"Area":null},{"Name":"麗森藥局","Address":"台北市士林區天母西路51號","Tel":"02 -28714152","Lat":25.1185913,"Lng":121.5269,"Area":null},{"Name":"天母大和藥師藥局","Address":"台北市士林區德行東路189－1號1樓","Tel":"02 -28310142","Lat":25.1089878,"Lng":121.531677,"Area":null},{"Name":"陽明藥局","Address":"台北市士林區菁山路10號1樓","Tel":"02 -28612863","Lat":25.1379852,"Lng":121.546928,"Area":null},{"Name":"康鈺藥局","Address":"台北市士林區德行東路133號1樓","Tel":"02 -28313915","Lat":25.1081066,"Lng":121.5292,"Area":null},{"Name":"今欣藥局","Address":"台北市士林區天母西路41巷9號1樓","Tel":"02 -28713129","Lat":25.1193333,"Lng":121.527306,"Area":null},{"Name":"士新藥局","Address":"台北市士林區文昌路62號","Tel":"02 -28331332","Lat":25.0960312,"Lng":121.521385,"Area":null},{"Name":"資生堂藥局","Address":"台北市士林區承德路4段40巷17號1Ｆ","Tel":"02 -28857588","Lat":25.0810871,"Lng":121.522049,"Area":null},{"Name":"社子全民藥局","Address":"台北市士林區延平北路5段120號","Tel":"02 -28127412","Lat":25.0816822,"Lng":121.510628,"Area":null},{"Name":"康華藥局","Address":"台北市士林區中山北路7段14巷2號2樓","Tel":"02 -28743223","Lat":25.1186638,"Lng":121.531166,"Area":null},{"Name":"詠恩藥局","Address":"台北市士林區延平北路5段316號1樓","Tel":"02 -28119479","Lat":25.0862179,"Lng":121.509636,"Area":null},{"Name":"安泰藥師藥局","Address":"台北市士林區延平北路六段83號（實際使用：1、2樓）","Tel":"02 -28166977","Lat":25.08843,"Lng":121.508682,"Area":null},{"Name":"家赫藥局","Address":"台北市士林區忠義街80號1樓","Tel":"02 -28346453","Lat":25.106142,"Lng":121.531677,"Area":null},{"Name":"得安藥局","Address":"台北市士林區文林路140號","Tel":"02 -28836336","Lat":25.0887432,"Lng":121.526634,"Area":null},{"Name":"達揚藥局","Address":"台北市士林區社正路36號1樓","Tel":"02 -88115559","Lat":25.0887547,"Lng":121.509911,"Area":null},{"Name":"仁大藥局","Address":"台北市士林區社子街13號1樓","Tel":"02 -88113793","Lat":25.0876789,"Lng":121.508316,"Area":null},{"Name":"和樹藥局","Address":"台北市士林區後港街45巷1號1樓","Tel":"02 -28821188","Lat":25.0844326,"Lng":121.522774,"Area":null},{"Name":"三光藥局","Address":"台北市士林區延平北路5段320號1樓","Tel":"02 -28123786","Lat":25.0863018,"Lng":121.509605,"Area":null},{"Name":"博信藥局","Address":"台北市士林區延平北路6段61號","Tel":"02 -28128295","Lat":25.087944,"Lng":121.508766,"Area":null},{"Name":"芳圓藥局","Address":"台北市士林區社子街26－1號","Tel":"02 -28168666","Lat":25.0875244,"Lng":121.507957,"Area":null},{"Name":"柏雅大藥局","Address":"台北市士林區德行西路64號","Tel":"02 -88664398","Lat":25.1050167,"Lng":121.522705,"Area":null},{"Name":"信光藥局","Address":"台北市士林區文昌路68號","Tel":"02 -28366277","Lat":25.0961933,"Lng":121.52137,"Area":null},{"Name":"文昌大藥局","Address":"台北市士林區文昌路72號","Tel":"02 -28376196","Lat":25.0963039,"Lng":121.521286,"Area":null},{"Name":"幸福藥局","Address":"台北市士林區德行東路109巷8號","Tel":"02 -28346650","Lat":25.1081486,"Lng":121.528389,"Area":null},{"Name":"天爵藥局","Address":"台北市士林區中山北路6段450巷1號","Tel":"02 -28733759","Lat":25.1142311,"Lng":121.527649,"Area":null},{"Name":"石川藥師藥局","Address":"台北市士林區忠義街70號","Tel":"02 -28385850","Lat":25.1059952,"Lng":121.531387,"Area":null},{"Name":"誼安藥局","Address":"台北市士林區通河街42號","Tel":"02 -28851899","Lat":25.080452,"Lng":121.521454,"Area":null},{"Name":"聖賢藥局","Address":"台北市士林區士商路58號","Tel":"02 -28833046","Lat":25.09056,"Lng":121.520035,"Area":null},{"Name":"美麗田藥局","Address":"台北市士林區通河街78號","Tel":"02 -28855990","Lat":25.0809383,"Lng":121.520477,"Area":null},{"Name":"大東健保藥局","Address":"臺北市士林區大東路86－4號","Tel":"02 -28834672","Lat":25.0913,"Lng":121.525688,"Area":null},{"Name":"健揚藥局","Address":"台北市士林區延平北路5段251號","Tel":"02 -28163698","Lat":25.0848389,"Lng":121.509651,"Area":null},{"Name":"光榮藥局","Address":"台北市士林區社中街118號","Tel":"02 -28136060","Lat":25.0898972,"Lng":121.510384,"Area":null},{"Name":"天母康甯健保藥局","Address":"台北市士林區克強路8號","Tel":"02 -28366631","Lat":25.1089287,"Lng":121.524559,"Area":null},{"Name":"社正藥局","Address":"台北市士林區社正路12號","Tel":"02 -28118704","Lat":25.0885353,"Lng":121.509308,"Area":null},{"Name":"家安健保藥局","Address":"台北市士林區德行東路109巷119號","Tel":"02 -28322182","Lat":25.111557,"Lng":121.528786,"Area":null},{"Name":"德行盛康藥局","Address":"台北市士林區德行東路206之1號","Tel":"02 -28348756","Lat":25.1088963,"Lng":121.532013,"Area":null},{"Name":"康佑藥局","Address":"台北市士林區延平北路5段176號","Tel":"02 -28119981","Lat":25.0830345,"Lng":121.51033,"Area":null},{"Name":"愛佳藥局","Address":"台北市士林區承德路4段222之1號","Tel":"02 -28811199","Lat":25.0884361,"Lng":121.521477,"Area":null},{"Name":"安奕藥局","Address":"台北市士林區葫蘆街30巷12號","Tel":"02 -28133289","Lat":25.0803623,"Lng":121.509987,"Area":null},{"Name":"全予藥局","Address":"台北市士林區德行東路221號","Tel":"02 -28386955","Lat":25.1094322,"Lng":121.532928,"Area":null},{"Name":"前港盛康藥局","Address":"台北市士林區前港街28號","Tel":"02 -28831079","Lat":25.0845871,"Lng":121.522079,"Area":null},{"Name":"藥本家藥局","Address":"台北市士林區中山北路7段14巷26號","Tel":"02 -28766682","Lat":25.1188583,"Lng":121.532784,"Area":null},{"Name":"文林生活健保藥局","Address":"台北市士林區文林路562號（實際使用：1樓）","Tel":"02 -28381971","Lat":25.0977325,"Lng":121.52404,"Area":null},{"Name":"天母盛康藥局","Address":"台北市士林區天母東路8巷84號","Tel":"02 -28720208","Lat":25.11472,"Lng":121.5303,"Area":null},{"Name":"中山盛康藥局","Address":"台北市士林區中山北路7段162號","Tel":"02 -28771887","Lat":25.1241627,"Lng":121.532715,"Area":null},{"Name":"士東台安藥局","Address":"台北市士林區士東路86之2號（實際使用：1樓）","Tel":"02 -28315667","Lat":25.1120052,"Lng":121.528831,"Area":null},{"Name":"太和堂中西藥局","Address":"台北市士林區大東路74號（實際使用：1樓）","Tel":"02 -28814122","Lat":25.0903473,"Lng":121.52578,"Area":null},{"Name":"躍獅芝山藥局","Address":"台北市士林區福華路154號（實際使用：1樓）","Tel":"02 -28365822","Lat":25.1035843,"Lng":121.522728,"Area":null},{"Name":"佩佩藥局","Address":"台北市士林區中山北路6段182號","Tel":"02 -28382662","Lat":25.1075459,"Lng":121.525269,"Area":null},{"Name":"容育藥局","Address":"台北市士林區延平北路6段8號（實際使用：1樓）","Tel":"02 -28113680","Lat":25.0871,"Lng":121.509285,"Area":null},{"Name":"新光維康藥局","Address":"台北市士林區基河路250之3號（實際使用：1樓）","Tel":"02 -28801011","Lat":25.0916882,"Lng":121.520813,"Area":null},{"Name":"石牌藥局","Address":"台北市北投區石牌路1段49號","Tel":"02 -28214986","Lat":25.1127567,"Lng":121.509422,"Area":null},{"Name":"天蓮藥局","Address":"台北市北投區石牌路1段166巷115號","Tel":"02 -28211824","Lat":25.1127567,"Lng":121.509422,"Area":null},{"Name":"丸三大藥局","Address":"台北市北投區自強街105號","Tel":"02 -28230637","Lat":25.1108513,"Lng":121.515251,"Area":null},{"Name":"進春藥局","Address":"台北市北投區明德路151號","Tel":"02 -28216938","Lat":25.1108723,"Lng":121.520645,"Area":null},{"Name":"德昇藥局","Address":"台北市北投區裕民二路20號","Tel":"02 -28217565","Lat":25.1160145,"Lng":121.516945,"Area":null},{"Name":"川秀藥局","Address":"台北市北投區石牌路2段99巷9號1樓","Tel":"02 -28270702","Lat":25.1180382,"Lng":121.516624,"Area":null},{"Name":"新祥藥局","Address":"台北市北投區知行路208號－1","Tel":"02 -28582551","Lat":25.1193581,"Lng":121.466858,"Area":null},{"Name":"福恭藥局","Address":"台北市北投區大業路300巷19號","Tel":"02 -28975325","Lat":25.128458,"Lng":121.4989,"Area":null},{"Name":"啟春藥局","Address":"台北市北投區崇仁路1段102號1樓","Tel":"02 -28918244","Lat":25.1253147,"Lng":121.501686,"Area":null},{"Name":"建民藥局","Address":"台北市北投區光明路161號","Tel":"02 -28912339","Lat":25.13539,"Lng":121.502617,"Area":null},{"Name":"昌源藥局","Address":"台北市北投區中央北路4段485號","Tel":"02 -28928695","Lat":25.12844,"Lng":121.469246,"Area":null},{"Name":"益元藥局","Address":"台北市北投區光明路106號","Tel":"02 -28912675","Lat":25.1330776,"Lng":121.501289,"Area":null},{"Name":"世全藥局","Address":"台北市北投區知行路273號","Tel":"02 -28585378","Lat":25.12135,"Lng":121.467171,"Area":null},{"Name":"九福藥局","Address":"台北市北投區公館路236號","Tel":"02 -28953009","Lat":25.1260948,"Lng":121.508026,"Area":null},{"Name":"弘安藥局","Address":"台北市北投區懷德街33號1樓","Tel":"02 -28206390","Lat":25.1121349,"Lng":121.519333,"Area":null},{"Name":"黎明藥局","Address":"台北市北投區尊賢街253－1號","Tel":"02 -28223795","Lat":25.1181736,"Lng":121.5066,"Area":null},{"Name":"名山藥局","Address":"台北市北投區東陽街475號1樓","Tel":"02 -28226101","Lat":25.1123276,"Lng":121.519936,"Area":null},{"Name":"明華藥局","Address":"台北市北投區清江路8號（實際使用：1樓）","Tel":"02 -28971056","Lat":25.13158,"Lng":121.501472,"Area":null},{"Name":"美康藥局","Address":"台北市北投區明德路90號1樓","Tel":"02 -28281176","Lat":25.1094,"Lng":121.519623,"Area":null},{"Name":"良興藥局","Address":"台北市北投區中和街286號","Tel":"02 -28933360","Lat":25.1404819,"Lng":121.500404,"Area":null},{"Name":"康揚藥局","Address":"台北市北投區中和街322號","Tel":"02 -28946520","Lat":25.1411018,"Lng":121.499786,"Area":null},{"Name":"聯合藥局","Address":"台北市北投區石牌路1段23號","Tel":"02 -28270306","Lat":25.1127567,"Lng":121.509422,"Area":null},{"Name":"玉山藥局","Address":"台北市北投區光明路145號","Tel":"02 -28956236","Lat":25.1349239,"Lng":121.502373,"Area":null},{"Name":"實踐藥局","Address":"台北市北投區實踐街13號","Tel":"02 -28276616","Lat":25.1148739,"Lng":121.507683,"Area":null},{"Name":"嘉禾大藥局","Address":"台北市北投區中和街264號","Tel":"02 -28984758","Lat":25.1401443,"Lng":121.500748,"Area":null},{"Name":"祐鄰藥局","Address":"台北市北投區尊賢街250號","Tel":"02 -28281232","Lat":25.1170521,"Lng":121.507271,"Area":null},{"Name":"小明藥局","Address":"台北市北投區中央南路1段69號2樓","Tel":"02 -28928950","Lat":25.13194,"Lng":121.501572,"Area":null},{"Name":"祐民藥局","Address":"台北市北投區中央南路1段209號1樓","Tel":"02 -28975339","Lat":25.1282959,"Lng":121.50135,"Area":null},{"Name":"上頤藥局","Address":"台北市北投區中和街327號1樓","Tel":"02 -28981230","Lat":25.140871,"Lng":121.499748,"Area":null},{"Name":"國泰藥師藥局","Address":"台北市北投區自強街139－1號","Tel":"02 -28223995","Lat":25.1111526,"Lng":121.516151,"Area":null},{"Name":"長宜藥局","Address":"台北市北投區自強街112號","Tel":"02 -28216605","Lat":25.1107616,"Lng":121.51545,"Area":null},{"Name":"妮妮藥局","Address":"台北市北投區中央南路1段187號","Tel":"02 -28948067","Lat":25.1289082,"Lng":121.501244,"Area":null},{"Name":"康賢藥局","Address":"台北市北投區西安街1段359號","Tel":"02 -28219295","Lat":25.1142483,"Lng":121.515335,"Area":null},{"Name":"大家藥局","Address":"台北市北投區光明路182號","Tel":"02 -28959000","Lat":25.1356564,"Lng":121.50325,"Area":null},{"Name":"天康大藥局","Address":"台北市北投區中央南路1段57號","Tel":"02 -28930168","Lat":25.1319256,"Lng":121.501419,"Area":null},{"Name":"維康藥局","Address":"台北市北投區石牌路2段191．193號","Tel":"02 -28206343","Lat":25.1188049,"Lng":121.518539,"Area":null},{"Name":"杏嘉藥局","Address":"台北市北投區清江路68號","Tel":"02 -28982340","Lat":25.1304436,"Lng":121.501678,"Area":null},{"Name":"躍獅光明藥局","Address":"台北市北投區光明路51、53號","Tel":"02 -28915993","Lat":25.1328659,"Lng":121.499771,"Area":null},{"Name":"小豬藥局","Address":"台北市北投區石牌路1段166巷83號","Tel":"02 -28217099","Lat":25.1127567,"Lng":121.509422,"Area":null},{"Name":"石牌健康人生藥局","Address":"台北市北投區石牌路2段187號","Tel":"02 -28225169","Lat":25.1186829,"Lng":121.518349,"Area":null},{"Name":"鴻恩藥局","Address":"台北市北投區中央南路1段129號","Tel":"02 -28926410","Lat":25.1301384,"Lng":121.501183,"Area":null},{"Name":"昱仁藥局","Address":"台北市北投區光明路102號2樓","Tel":"02 -28979050","Lat":25.1330833,"Lng":121.501213,"Area":null},{"Name":"關渡松藥局","Address":"台北市北投區知行路247號","Tel":"02 -28584824","Lat":25.1208038,"Lng":121.467072,"Area":null},{"Name":"佳祈健保藥局","Address":"台北市北投區明德路144號","Tel":"02 -28232535","Lat":25.110445,"Lng":121.52076,"Area":null},{"Name":"天禧大藥局","Address":"台北市北投區實踐街35號","Tel":"02 -28213558","Lat":25.1152859,"Lng":121.50872,"Area":null},{"Name":"秝安藥局","Address":"台北市北投區石牌路1段69號（實際使用：1樓）","Tel":"02 -28215399","Lat":25.1127567,"Lng":121.509422,"Area":null},{"Name":"萬信藥局","Address":"台北市北投區知行路305號（實際使用1樓）","Tel":"02 -28583083","Lat":25.1221771,"Lng":121.467163,"Area":null},{"Name":"北投春天藥局","Address":"台北市北投區中央南路1段76號","Tel":"02 -28916668","Lat":25.1313934,"Lng":121.501114,"Area":null},{"Name":"致遠春天藥局","Address":"臺北市北投區致遠一路1段132號1、2樓","Tel":"02 -28253258","Lat":25.1098938,"Lng":121.514771,"Area":null},{"Name":"惠群藥局","Address":"台北市信義區忠孝東路4段559巷38號","Tel":"02 -27679234","Lat":25.0431,"Lng":121.563782,"Area":null},{"Name":"必欣藥局","Address":"台北市信義區松仁路264號","Tel":"02 -27225060","Lat":25.0243034,"Lng":121.56958,"Area":null},{"Name":"福華藥局","Address":"台北市信義區吳興街281巷3號1樓","Tel":"02 -27208527","Lat":25.026598,"Lng":121.564384,"Area":null},{"Name":"臺陽藥局","Address":"台北市信義區大道路61號","Tel":"02 -27283403","Lat":25.041338,"Lng":121.582352,"Area":null},{"Name":"松隆藥局","Address":"台北市信義區虎林街65號","Tel":"02 -27684033","Lat":25.046032,"Lng":121.5771,"Area":null},{"Name":"杏康藥局","Address":"台北市信義區忠孝東路5段372巷27弄68－2號1Ｆ","Tel":"02 -23457422","Lat":25.0397434,"Lng":121.5753,"Area":null},{"Name":"光成藥局","Address":"台北市信義區光復南路457號－3","Tel":"02 -27587069","Lat":25.0344429,"Lng":121.557709,"Area":null},{"Name":"慧生藥局","Address":"台北市信義區松山路310號","Tel":"02 -27647138","Lat":25.0425568,"Lng":121.577606,"Area":null},{"Name":"文豐藥局","Address":"台北市信義區松山路543號－1","Tel":"02 -27272709","Lat":25.0375957,"Lng":121.578308,"Area":null},{"Name":"鼎泰藥局","Address":"台北市信義區基隆路1段155號1樓","Tel":"02 -27620617","Lat":25.0421867,"Lng":121.565414,"Area":null},{"Name":"松山大藥局","Address":"台北市信義區永吉路436號","Tel":"02 -27620624","Lat":25.04525,"Lng":121.578186,"Area":null},{"Name":"大順安藥局","Address":"台北市信義區吳興街84號","Tel":"02 -27360639","Lat":25.0305729,"Lng":121.560608,"Area":null},{"Name":"立信藥局","Address":"台北市信義區松山路403號","Tel":"02 -27687754","Lat":25.0414982,"Lng":121.578033,"Area":null},{"Name":"吳興藥局","Address":"台北市信義區吳興街279號1樓","Tel":"02 -27208328","Lat":25.0265713,"Lng":121.564148,"Area":null},{"Name":"杏仁藥局","Address":"台北市信義區大道路135號","Tel":"02 -27262541","Lat":25.0390339,"Lng":121.583443,"Area":null},{"Name":"百康藥局","Address":"台北市信義區基隆路2段131之20號","Tel":"02 -27364377","Lat":25.0278683,"Lng":121.556671,"Area":null},{"Name":"佑華藥局","Address":"台北市信義區忠孝東路5段508－4號1樓","Tel":"02 -27595719","Lat":25.0409851,"Lng":121.578621,"Area":null},{"Name":"新和平藥局","Address":"台北市信義區虎林街198號1樓","Tel":"02 -23460951","Lat":25.0384254,"Lng":121.576859,"Area":null},{"Name":"得揚藥局","Address":"台北市信義區忠孝東路5段452號1樓","Tel":"02 -87884667","Lat":25.0406723,"Lng":121.576324,"Area":null},{"Name":"華泰藥局","Address":"台北市信義區虎林街82巷5號","Tel":"02 -27601992","Lat":25.0434246,"Lng":121.576904,"Area":null},{"Name":"德康大藥局","Address":"台北市信義區松山路541巷21號","Tel":"02 -27272502","Lat":25.0380135,"Lng":121.579094,"Area":null},{"Name":"皇佳大藥局","Address":"台北市信義區松山路541巷19號","Tel":"02 -27269868","Lat":25.0380154,"Lng":121.578995,"Area":null},{"Name":"好康藥局","Address":"台北市信義區莊敬路414號","Tel":"02 -27232979","Lat":25.0271244,"Lng":121.566208,"Area":null},{"Name":"麗中藥局","Address":"台北市信義區福德街217號","Tel":"02 -27594416","Lat":25.0384274,"Lng":121.584763,"Area":null},{"Name":"文興藥局","Address":"台北市信義區福德街245號","Tel":"02 -27590989","Lat":25.038744,"Lng":121.585846,"Area":null},{"Name":"康杏藥局","Address":"台北市信義區福德街306號1樓","Tel":"02 -27591510","Lat":25.0392475,"Lng":121.587456,"Area":null},{"Name":"昆陽藥局","Address":"台北市信義區林口街230號","Tel":"02 -27274814","Lat":25.0428085,"Lng":121.581108,"Area":null},{"Name":"綠杏大藥局","Address":"台北市信義區吳興街241號","Tel":"02 -27582378","Lat":25.02754,"Lng":121.563515,"Area":null},{"Name":"鴻濟藥局","Address":"台北市信義區永吉路326巷2號1樓","Tel":"02 -27645331","Lat":25.0450764,"Lng":121.575386,"Area":null},{"Name":"信桉藥局","Address":"台北市信義區莊敬路236號","Tel":"02 -87860005","Lat":25.0295849,"Lng":121.562073,"Area":null},{"Name":"安佑藥局","Address":"台北市信義區吳興街247號1樓","Tel":"02 -27222236","Lat":25.0274353,"Lng":121.563591,"Area":null},{"Name":"安心藥局","Address":"台北市信義區永吉路30巷148弄4之1號","Tel":"02 -27474992","Lat":25.0426178,"Lng":121.568542,"Area":null},{"Name":"九州藥局","Address":"台北市信義區和平東路3段239號","Tel":"02 -87323331","Lat":25.0230026,"Lng":121.554306,"Area":null},{"Name":"永吉藥局","Address":"台北市信義區永吉路213號","Tel":"02 -87874043","Lat":25.0457668,"Lng":121.573845,"Area":null},{"Name":"松仁藥局","Address":"台北市信義區松仁路233號","Tel":"02 -27238626","Lat":25.0261631,"Lng":121.5688,"Area":null},{"Name":"喜樂藥局","Address":"台北市信義區松德路125號","Tel":"02 -27275797","Lat":25.037487,"Lng":121.575211,"Area":null},{"Name":"榮泰藥局","Address":"台北市信義區光復南路419巷19號","Tel":"02 -77296777","Lat":25.0366116,"Lng":121.558136,"Area":null},{"Name":"皇昇大藥局","Address":"台北市信義區松山路210號1樓","Tel":"02 -27663488","Lat":25.0449963,"Lng":121.577629,"Area":null},{"Name":"貴臨藥局","Address":"台北市信義區永吉路326巷19號","Tel":"02 -27493768","Lat":25.0445824,"Lng":121.5756,"Area":null},{"Name":"三立藥局","Address":"台北市信義區忠孝東路5段492巷34號","Tel":"02 -27271401","Lat":25.03968,"Lng":121.578331,"Area":null},{"Name":"大鳥藥局","Address":"台北市信義區莊敬路354號","Tel":"02 -23455025","Lat":25.0277061,"Lng":121.564346,"Area":null},{"Name":"濟生中西藥局","Address":"台北市信義區崇德街41號","Tel":"02 -27358452","Lat":25.0244179,"Lng":121.5542,"Area":null},{"Name":"正和藥局","Address":"台北市信義區吳興街225巷6號","Tel":"02 -23455186","Lat":25.0278225,"Lng":121.563431,"Area":null},{"Name":"上禾藥師藥局","Address":"台北市信義區林口街27號","Tel":"02 -27592686","Lat":25.037384,"Lng":121.57917,"Area":null},{"Name":"荐荃藥師藥局","Address":"台北市信義區虎林街68之3號","Tel":"02 -27492866","Lat":25.0446663,"Lng":121.577,"Area":null},{"Name":"新永春藥局","Address":"台北市信義區忠孝東路5段423巷1號","Tel":"02 -27667385","Lat":25.0413113,"Lng":121.575264,"Area":null},{"Name":"馨馨藥局","Address":"台北市信義區虎林街82巷19號","Tel":"02 -27491208","Lat":25.0434341,"Lng":121.57637,"Area":null},{"Name":"康怡健保藥局","Address":"台北市信義區吳興街467巷2弄12號","Tel":"02 -27206193","Lat":25.0240345,"Lng":121.569122,"Area":null},{"Name":"御安藥局","Address":"台北市信義區和平東路3段359號","Tel":"02 -27323997","Lat":25.0203857,"Lng":121.557022,"Area":null},{"Name":"新興健保藥局","Address":"台北市信義區永吉路30巷113號","Tel":"02 -27494892","Lat":25.04326,"Lng":121.568909,"Area":null},{"Name":"松德盛康藥局","Address":"台北市信義區松德路40號","Tel":"02 -87891622","Lat":25.0390511,"Lng":121.576637,"Area":null},{"Name":"杏一永春藥局","Address":"台北市信義區松山路292巷17號","Tel":"02 -27495938","Lat":25.0433464,"Lng":121.577232,"Area":null},{"Name":"杏一光復藥局","Address":"台北市信義區光復南路449之1號","Tel":"02 -87804626","Lat":25.0349846,"Lng":121.557693,"Area":null},{"Name":"富熙仁康藥局","Address":"台北市信義區松仁路260號","Tel":"02 -27587608","Lat":25.0242977,"Lng":121.56945,"Area":null},{"Name":"洪暘藥局","Address":"台北市信義區富陽街86號","Tel":"02 -27337099","Lat":25.02123,"Lng":121.556374,"Area":null},{"Name":"壹間藥師藥局","Address":"台北市信義區虎林街120巷148號","Tel":"02 -27672833","Lat":25.0420628,"Lng":121.574165,"Area":null},{"Name":"專品光復藥局","Address":"台北市信義區光復南路467之1號","Tel":"02 -27586682","Lat":25.03391,"Lng":121.557678,"Area":null},{"Name":"康健信安藥局","Address":"台北市信義區信安街151號","Tel":"02 -87324166","Lat":25.022892,"Lng":121.555435,"Area":null},{"Name":"尚頤中西藥局","Address":"台北市信義區虎林街145號","Tel":"02 -27253818","Lat":25.0395927,"Lng":121.576782,"Area":null},{"Name":"躍獅興雅藥局","Address":"台北市信義區松德路128號","Tel":"02 -87808429","Lat":25.0373821,"Lng":121.574455,"Area":null},{"Name":"信義盛康藥局","Address":"台北市信義區永吉路286號","Tel":"02 -23460521","Lat":25.04537,"Lng":121.574425,"Area":null},{"Name":"上好藥師藥局","Address":"台北市信義區永吉路30巷101弄48號","Tel":"02 -27677088","Lat":25.0434055,"Lng":121.570107,"Area":null},{"Name":"立赫北醫藥局","Address":"台北市信義區吳興街118巷26弄17號","Tel":"02 -27320100","Lat":25.0300179,"Lng":121.559937,"Area":null},{"Name":"北一健康人生藥局","Address":"台北市信義區吳興街255號","Tel":"02 -27583945","Lat":25.0272827,"Lng":121.563713,"Area":null},{"Name":"柏愛藥局","Address":"台北市信義區基隆路2段131之9號","Tel":"02 -27325472","Lat":25.0278683,"Lng":121.556671,"Area":null},{"Name":"愛維喜藥局","Address":"台北市信義區莊敬路278號","Tel":"02 -27586989","Lat":25.02878,"Lng":121.562706,"Area":null},{"Name":"博亞藥局","Address":"台北市信義區莊敬路462號","Tel":"02 -27580506","Lat":25.0267715,"Lng":121.567741,"Area":null},{"Name":"松美藥局","Address":"台北市信義區市民大道6段320號（實際營業地址：1樓）","Tel":"02 -27651099","Lat":25.04879,"Lng":121.57972,"Area":null},{"Name":"崇信藥局","Address":"台北市中正區齊東街88號","Tel":"02 -23417557","Lat":25.041687,"Lng":121.527176,"Area":null},{"Name":"日生大藥局","Address":"台北市中正區汀州路1段53號1樓","Tel":"02 -23031393","Lat":25.0302773,"Lng":121.507675,"Area":null},{"Name":"三元藥局","Address":"台北市中正區三元街158號","Tel":"02 -23052839","Lat":25.028019,"Lng":121.510841,"Area":null},{"Name":"民生藥局","Address":"台北市中正區濟南路2段45－1號1樓","Tel":"02 -23416470","Lat":25.04065,"Lng":121.530525,"Area":null},{"Name":"華達藥局","Address":"台北市萬華區環河南路2段171號","Tel":"02 -23082785","Lat":25.03295,"Lng":121.492447,"Area":null},{"Name":"榮勝藥局","Address":"台北市萬華區萬大路233號","Tel":"02 -23331121","Lat":25.0264473,"Lng":121.5007,"Area":null},{"Name":"安誠貴陽藥局","Address":"台北市萬華區貴陽街2段148號","Tel":"02 -23812190","Lat":25.0401287,"Lng":121.501587,"Area":null},{"Name":"千誠北護藥局","Address":"台北市萬華區內江街114號","Tel":"02 -23123530","Lat":25.04152,"Lng":121.5034,"Area":null},{"Name":"松本藥局","Address":"台北市萬華區西昌街233號","Tel":"02 -23029559","Lat":25.0372219,"Lng":121.500679,"Area":null},{"Name":"日森人文藥局","Address":"台北市萬華區和平西路3段149號","Tel":"02 -23082100","Lat":25.0354652,"Lng":121.498764,"Area":null},{"Name":"柏祥藥局","Address":"台北市萬華區西藏路141號","Tel":"02 -23018272","Lat":25.02941,"Lng":121.501648,"Area":null},{"Name":"展源健康藥局","Address":"台北市萬華區國興路104號","Tel":"02 -23035179","Lat":25.0275078,"Lng":121.505379,"Area":null},{"Name":"富安藥局","Address":"台北市萬華區萬大路426號","Tel":"02 -23377878","Lat":25.0209923,"Lng":121.498055,"Area":null},{"Name":"青年宏越藥局","Address":"台北市萬華區青年路44號","Tel":"02 -23011037","Lat":25.0255661,"Lng":121.504219,"Area":null},{"Name":"正盛藥局","Address":"台北市萬華區中華路2段434－1號","Tel":"02 -23050386","Lat":25.0271511,"Lng":121.506454,"Area":null},{"Name":"啟仁藥局","Address":"台北市萬華區環河南路2段177號","Tel":"02 -23362771","Lat":25.0325642,"Lng":121.492119,"Area":null},{"Name":"光華藥局","Address":"台北市萬華區華西街19－5號","Tel":"02 -23613609","Lat":25.0389881,"Lng":121.498528,"Area":null},{"Name":"裕康藥局","Address":"台北市文山區木柵路1段12號","Tel":"02 -22367756","Lat":24.98663,"Lng":121.546242,"Area":null},{"Name":"建興藥局","Address":"台北市文山區木柵路2段81號1樓","Tel":"02 -29399993","Lat":24.9888973,"Lng":121.560928,"Area":null},{"Name":"健群藥局","Address":"台北市文山區景興路41號","Tel":"02 -29328898","Lat":24.9971638,"Lng":121.544876,"Area":null},{"Name":"瑞安藥局","Address":"台北市文山區溪口街69－1號1樓","Tel":"02 -29312888","Lat":24.9949741,"Lng":121.539276,"Area":null},{"Name":"景美藥局","Address":"台北市文山區景文街125號","Tel":"02 -29335741","Lat":24.99032,"Lng":121.541214,"Area":null},{"Name":"全銨藥局","Address":"台北市文山區木新路3段349號1樓","Tel":"02 -29370689","Lat":24.9802933,"Lng":121.555824,"Area":null},{"Name":"永明大藥局","Address":"台北市文山區興隆路1段297號1樓","Tel":"02 -29314428","Lat":24.9997234,"Lng":121.548,"Area":null},{"Name":"日信專業藥局","Address":"台北市文山區木柵路2段139號1樓","Tel":"02 -86618322","Lat":24.9890862,"Lng":121.562576,"Area":null},{"Name":"逸仙藥師藥局","Address":"台北市文山區興隆路2段218－1號1樓","Tel":"02 -29312597","Lat":25.0014229,"Lng":121.552582,"Area":null},{"Name":"康宜庭生活藥局","Address":"台北市文山區興隆路4段64號","Tel":"02 -29385363","Lat":24.9849281,"Lng":121.561371,"Area":null},{"Name":"博揚藥局","Address":"台北市文山區景興路181號","Tel":"02 -89321707","Lat":24.9927654,"Lng":121.544434,"Area":null},{"Name":"東京晟藥局","Address":"台北市文山區辛亥路4段97號","Tel":"02 -29356354","Lat":25.0067654,"Lng":121.558708,"Area":null},{"Name":"仙瑩藥局","Address":"台北市文山區景華街166號","Tel":"02 -89321817","Lat":24.9969,"Lng":121.547905,"Area":null},{"Name":"銘依藥局","Address":"台北市文山區興隆路2段301巷4－1號","Tel":"02 -29308538","Lat":25.0017071,"Lng":121.55349,"Area":null},{"Name":"舒博威藥局","Address":"台北市文山區興隆路2段95巷3號","Tel":"02 -29306805","Lat":24.9995232,"Lng":121.546928,"Area":null},{"Name":"巧康藥局","Address":"台北市文山區木新路3段262、264號","Tel":"02 -29372061","Lat":24.9813118,"Lng":121.55851,"Area":null},{"Name":"佳醫景美藥局","Address":"台北市文山區羅斯福路6段290號","Tel":"02 -86636659","Lat":24.99095,"Lng":121.5398,"Area":null},{"Name":"慶豐好藥局","Address":"台北市文山區興隆路4段135號1樓","Tel":"02 -29384775","Lat":24.9853668,"Lng":121.561569,"Area":null},{"Name":"華君藥局","Address":"台北市文山區興隆路2段60號","Tel":"02 -29319510","Lat":24.9994888,"Lng":121.5477,"Area":null},{"Name":"安誠藥局","Address":"台北市文山區景華街124－1號","Tel":"02 -29308542","Lat":24.99567,"Lng":121.546913,"Area":null},{"Name":"皇興藥師藥局","Address":"台北市文山區木柵路2段121號","Tel":"02 -29365553","Lat":24.9890079,"Lng":121.562,"Area":null},{"Name":"宇康藥局","Address":"台北市文山區羅斯福路5段218巷7號","Tel":"02 -29307066","Lat":25.0020542,"Lng":121.5383,"Area":null},{"Name":"康宜庭景文藥局","Address":"台北市文山區景文街97號","Tel":"02 -29302801","Lat":24.9908752,"Lng":121.541557,"Area":null},{"Name":"人人健保藥局","Address":"台北市文山區保儀路39號","Tel":"02 -86610761","Lat":24.9878063,"Lng":121.5687,"Area":null},{"Name":"杏隆藥局","Address":"台北市文山區羅斯福路5段261號","Tel":"02 -29313151","Lat":25.0011959,"Lng":121.539551,"Area":null},{"Name":"永源大藥局","Address":"台北市文山區興隆路3段302號","Tel":"02 -22396166","Lat":24.9929962,"Lng":121.558739,"Area":null},{"Name":"康宜庭萬隆藥局","Address":"台北市文山區羅斯福路5段202號","Tel":"02 -29348662","Lat":25.0032959,"Lng":121.538414,"Area":null},{"Name":"美迦藥局","Address":"台北市文山區保儀路23號","Tel":"02 -29362815","Lat":24.9881363,"Lng":121.5687,"Area":null},{"Name":"振大藥局","Address":"台北市文山區永安街22巷16號","Tel":"02 -29393385","Lat":24.9868736,"Lng":121.569664,"Area":null},{"Name":"躍獅奕新藥局","Address":"台北市文山區木新路2段275號","Tel":"02 -22340378","Lat":24.9828682,"Lng":121.56604,"Area":null},{"Name":"宜康藥局","Address":"台北市文山區保儀路7號","Tel":"02 -86619862","Lat":24.9887428,"Lng":121.568626,"Area":null},{"Name":"欣安景美藥局","Address":"台北市文山區景文街77號","Tel":"02 -29316008","Lat":24.9912739,"Lng":121.5414,"Area":null},{"Name":"北一藥師藥局","Address":"台北市文山區木新路3段47號","Tel":"02 -22348686","Lat":24.982357,"Lng":121.564163,"Area":null},{"Name":"萬隆大藥局","Address":"台北市文山區羅斯福路5段218巷15號","Tel":"02 -29334580","Lat":25.0020046,"Lng":121.537933,"Area":null},{"Name":"杏一萬安藥局","Address":"台北市文山區萬安街15號","Tel":"02 -22302126","Lat":25.0013981,"Lng":121.570618,"Area":null},{"Name":"健康家藥局","Address":"台北市文山區興隆路2段133號","Tel":"02 -29330858","Lat":25.0001431,"Lng":121.548058,"Area":null},{"Name":"躍獅永健藥局","Address":"台北市文山區木柵路1段177號","Tel":"02 -77285780","Lat":24.9877357,"Lng":121.550972,"Area":null},{"Name":"健康人生藥局","Address":"台北市文山區興隆路3段106號","Tel":"02 -29347813","Lat":24.9992828,"Lng":121.55722,"Area":null},{"Name":"木新健康人生藥局","Address":"台北市文山區木新路3段203號","Tel":"02 -86611465","Lat":24.9814186,"Lng":121.559891,"Area":null},{"Name":"大樹文山藥局","Address":"台北市文山區興隆路3段13號（1、2、3樓）","Tel":"02 -29342226","Lat":25.0008869,"Lng":121.555,"Area":null},{"Name":"景華盛康藥局","Address":"台北市文山區景華街69號","Tel":"02 -29310188","Lat":24.99526,"Lng":121.545067,"Area":null},{"Name":"杏一木柵藥局","Address":"台北市文山區木柵路3段98號","Tel":"02 -29371839","Lat":24.9886112,"Lng":121.567345,"Area":null},{"Name":"光明大藥局","Address":"台北市文山區忠順街1段66號","Tel":"02 -29390275","Lat":24.9842224,"Lng":121.560692,"Area":null},{"Name":"福興藥局","Address":"台北市文山區福興路56號","Tel":"02 -89313868","Lat":25.0034962,"Lng":121.550423,"Area":null},{"Name":"路加健康藥局","Address":"台北市文山區興隆路2段220巷39號","Tel":"02 -29302336","Lat":25.0002079,"Lng":121.552185,"Area":null},{"Name":"健安藥局","Address":"台北市文山區景興路165號","Tel":"02 -29323757","Lat":24.9934425,"Lng":121.544624,"Area":null},{"Name":"逸全生活藥局","Address":"台北市文山區羅斯福路5段222號","Tel":"02 -29326185","Lat":25.0019855,"Lng":121.538704,"Area":null},{"Name":"躍獅新芳藥局","Address":"台北市文山區興隆路3段90號","Tel":"02 -29308172","Lat":24.99957,"Lng":121.556793,"Area":null},{"Name":"綠杏萬芳藥局","Address":"台北市文山區興隆路3段111號","Tel":"02 -29349516","Lat":24.9999,"Lng":121.558144,"Area":null},{"Name":"躍獅景新藥局","Address":"台北市文山區羅斯福路6段30號","Tel":"02 -29356221","Lat":24.9996777,"Lng":121.53968,"Area":null},{"Name":"大愛幸福藥局","Address":"台北市文山區木新路2段221號","Tel":"02 -29379977","Lat":24.983387,"Lng":121.567566,"Area":null},{"Name":"杏一萬芳藥局","Address":"台北市文山區興隆路3段118號、118號2樓","Tel":"02 -82301606","Lat":24.9990826,"Lng":121.557617,"Area":null},{"Name":"躍獅木柵藥局","Address":"台北市文山區指南路1段28號","Tel":"02 -86617752","Lat":24.987339,"Lng":121.569519,"Area":null},{"Name":"和生藥局","Address":"高雄市鹽埕區建國四路178－2號","Tel":"07 -5315739","Lat":22.6278534,"Lng":120.28167,"Area":null},{"Name":"利百加藥局","Address":"高雄市鹽埕區大公路96號","Tel":"07 -5511098","Lat":22.6278648,"Lng":120.282555,"Area":null},{"Name":"永松藥局","Address":"高雄市鼓山區鼓山三路130－15號","Tel":"07 -5810657","Lat":22.6644688,"Lng":120.280159,"Area":null},{"Name":"世和藥局","Address":"高雄市鼓山區華豐里華夏路195號","Tel":"07 -5522566","Lat":22.669384,"Lng":120.295914,"Area":null},{"Name":"崧柏藥局","Address":"高雄市鼓山區華榮路543號","Tel":"07 -5542027","Lat":22.66972,"Lng":120.29361,"Area":null},{"Name":"快安藥局","Address":"高雄市鼓山區濱海一路32號","Tel":"07 -5514090","Lat":22.6200581,"Lng":120.27224,"Area":null},{"Name":"文山藥局","Address":"高雄市鼓山區鼓山二路166之8之9號","Tel":"07 -5315681","Lat":22.6367931,"Lng":120.281013,"Area":null},{"Name":"藍玉藥局","Address":"高雄市鼓山區鼓峰里九如四路2002號","Tel":"07 -5837528","Lat":22.66776,"Lng":120.286087,"Area":null},{"Name":"恆生藥局","Address":"高雄市鼓山區臨海二路13號","Tel":"07 -5616156","Lat":22.62144,"Lng":120.27433,"Area":null},{"Name":"惠民藥局","Address":"高雄市鼓山區九如四路1426號","Tel":"07 -5833228","Lat":22.6587276,"Lng":120.279289,"Area":null},{"Name":"元氣藥局","Address":"高雄市鼓山區南屏路533號","Tel":"07 -5555995","Lat":22.6642818,"Lng":120.300224,"Area":null},{"Name":"永瑞藥局","Address":"高雄市鼓山區華榮路298號2樓","Tel":"07 -5521376","Lat":22.66622,"Lng":120.29705,"Area":null},{"Name":"安康藥局","Address":"高雄市鼓山區裕誠路1155號","Tel":"07 -5536828","Lat":22.6657257,"Lng":120.297279,"Area":null},{"Name":"定國藥局","Address":"高雄市鼓山區九如四路1135號","Tel":"07 -5815858","Lat":22.6594124,"Lng":120.279289,"Area":null},{"Name":"裕康中西大藥局","Address":"高雄市鼓山區裕誠路1519號","Tel":"07 -5555352","Lat":22.66485,"Lng":120.295135,"Area":null},{"Name":"弘興藥局","Address":"高雄市鼓山區鼓山三路48－11號","Tel":"07 -5612677","Lat":22.6547146,"Lng":120.275574,"Area":null},{"Name":"康爾喜藥局","Address":"高雄市鼓山區慶豐街50號","Tel":"07 -5222650","Lat":22.6665211,"Lng":120.293648,"Area":null},{"Name":"高美館藥局","Address":"高雄市鼓山區中華一路968號","Tel":"07 -5554899","Lat":22.6551838,"Lng":120.2918,"Area":null},{"Name":"大有藥局","Address":"高雄市鼓山區文信路236號","Tel":"07 -5529402","Lat":22.6647511,"Lng":120.300484,"Area":null},{"Name":"高雄藥局","Address":"高雄市鼓山區九如四路924號","Tel":"07 -5610031","Lat":22.6547127,"Lng":120.279213,"Area":null},{"Name":"紅心藥局","Address":"高雄市左營區崇德路255號","Tel":"07 -3416697","Lat":22.67536,"Lng":120.30407,"Area":null},{"Name":"宏仁藥局","Address":"高雄市左營區左營大路390號","Tel":"07 -5817895","Lat":22.68711,"Lng":120.293152,"Area":null},{"Name":"元美藥局","Address":"高雄市左營區路東里部後街26號","Tel":"07 -5821226","Lat":22.68446,"Lng":120.288139,"Area":null},{"Name":"果貿藥局","Address":"高雄市左營區果峰街22號","Tel":"07 -5852825","Lat":22.6705856,"Lng":120.288345,"Area":null},{"Name":"立文藥局","Address":"高雄市左營區立文路54號","Tel":"07 -5572899","Lat":22.6645966,"Lng":120.305763,"Area":null},{"Name":"慈德藥局","Address":"高雄市左營重愛路53號","Tel":"07 -3416212","Lat":22.6830769,"Lng":120.318649,"Area":null},{"Name":"翔生藥局","Address":"高雄市左營區尾南里左營大路514號","Tel":"07 -5827329","Lat":22.689436,"Lng":120.295532,"Area":null},{"Name":"吉辰藥局","Address":"高雄市左營區左營大路41之1號","Tel":"07 -5815069","Lat":22.67597,"Lng":120.287018,"Area":null},{"Name":"重仁藥局","Address":"高雄市左營區左營大路408號","Tel":"07 -5824083","Lat":22.6873,"Lng":120.29348,"Area":null},{"Name":"有機藥局","Address":"高雄市左營區榮耀街3號","Tel":"07 -3596429","Lat":22.67938,"Lng":120.321571,"Area":null},{"Name":"新高橋藥局","Address":"高雄市左營區民族一路1028號","Tel":"07 -3100696","Lat":22.6834,"Lng":120.320206,"Area":null},{"Name":"崇光藥局","Address":"高雄市左營區華夏路755號","Tel":"07 -3452211","Lat":22.6790447,"Lng":120.302864,"Area":null},{"Name":"平安藥局","Address":"高雄市左營區中華一路5之1號","Tel":"07 -5833688","Lat":22.6676273,"Lng":120.290024,"Area":null},{"Name":"光明健保藥局","Address":"高雄市左營區翠華路601巷83號","Tel":"07 -5812499","Lat":22.6727638,"Lng":120.289131,"Area":null},{"Name":"和信藥師健保藥局","Address":"高雄市左營區崇德路267號","Tel":"07 -3419363","Lat":22.6755543,"Lng":120.303719,"Area":null},{"Name":"政大聯合藥局","Address":"高雄市左營區自由三路506號","Tel":"07 -3454713","Lat":22.6780071,"Lng":120.313477,"Area":null},{"Name":"好幸福專業藥局","Address":"高雄市左營區明華一路220號","Tel":"07 -5506816","Lat":22.66306,"Lng":120.305511,"Area":null},{"Name":"威林藥局","Address":"高雄市左營區華夏路721號","Tel":"07 -3414243","Lat":22.6785088,"Lng":120.302231,"Area":null},{"Name":"健怡藥局","Address":"高雄市左營區翠峰路40號","Tel":"07 -5821891","Lat":22.6720581,"Lng":120.289032,"Area":null},{"Name":"可達藥局","Address":"高雄市左營區榮德街177號","Tel":"07 -3420182","Lat":22.6835766,"Lng":120.3205,"Area":null},{"Name":"必健藥局","Address":"高雄市左營區自由二路90號","Tel":"07 -5584259","Lat":22.6595478,"Lng":120.30909,"Area":null},{"Name":"合康健保藥局","Address":"高雄市左營區裕誠路188號","Tel":"07 -5509667","Lat":22.6644917,"Lng":120.310822,"Area":null},{"Name":"杏光藥局","Address":"高雄市左營區果峰街47巷1號1樓","Tel":"07 -3454432","Lat":22.6703472,"Lng":120.287163,"Area":null},{"Name":"健智美藥局","Address":"高雄市左營區富國路98號","Tel":"07 -5580888","Lat":22.6590919,"Lng":120.306694,"Area":null},{"Name":"安欣藥師藥局","Address":"高雄市左營區大順一路552號1樓","Tel":"07 -5506620","Lat":22.6565,"Lng":120.303787,"Area":null},{"Name":"辰暘藥局","Address":"高雄市左營區富民路120號1、2樓","Tel":"07 -5588545","Lat":22.6606617,"Lng":120.305351,"Area":null},{"Name":"成吉藥局","Address":"高雄市楠梓區楠梓東街74號","Tel":"07 -3513339","Lat":22.7296867,"Lng":120.330109,"Area":null},{"Name":"橘井藥局","Address":"高雄市楠梓區楠梓路129號","Tel":"07 -3511869","Lat":22.7302,"Lng":120.328545,"Area":null},{"Name":"富翔藥局","Address":"高雄市楠梓區常德路307號","Tel":"07 -3516365","Lat":22.7369633,"Lng":120.337,"Area":null},{"Name":"新友藥局","Address":"高雄市楠梓區萬昌路111號","Tel":"07 -3653534","Lat":22.7119026,"Lng":120.289581,"Area":null},{"Name":"世詠藥局","Address":"高雄市楠梓區楠都東街138號","Tel":"07 -3539869","Lat":22.7253323,"Lng":120.326187,"Area":null},{"Name":"宗隆藥局","Address":"高雄市楠梓區右昌街220號","Tel":"07 -3622203","Lat":22.711813,"Lng":120.289276,"Area":null},{"Name":"丁丁楠梓藥局","Address":"高雄市楠梓區建楠路130、132、134號","Tel":"07 -3533743","Lat":22.7271557,"Lng":120.327179,"Area":null},{"Name":"黃藥局","Address":"高雄市楠梓區惠楠里建楠路186號","Tel":"07 -3515700","Lat":22.7271652,"Lng":120.326035,"Area":null},{"Name":"東初藥局","Address":"高雄市楠梓區楠梓路32號","Tel":"07 -3511261","Lat":22.7286072,"Lng":120.329781,"Area":null},{"Name":"益民藥局","Address":"高雄市楠梓區建楠路47號","Tel":"07 -3522161","Lat":22.7267151,"Lng":120.328789,"Area":null},{"Name":"進昇藥局","Address":"高雄市楠梓區德賢路202號","Tel":"07 -3652334","Lat":22.7268467,"Lng":120.306725,"Area":null},{"Name":"筆秀藥局","Address":"高雄市楠梓區青埔街152號","Tel":"07 -3622412","Lat":22.72961,"Lng":120.322258,"Area":null},{"Name":"千惠藥局","Address":"高雄市楠梓區和光街181號","Tel":"07 -3631268","Lat":22.70889,"Lng":120.29586,"Area":null},{"Name":"順明藥局","Address":"高雄市楠梓區和光街65號","Tel":"07 -3615574","Lat":22.7072124,"Lng":120.293938,"Area":null},{"Name":"聯亞藥局","Address":"高雄市揇梓區軍校路710號","Tel":"07 -3638387","Lat":22.7078152,"Lng":120.292969,"Area":null},{"Name":"正人藥師藥局","Address":"高雄市楠梓區和昌里軍校路672號","Tel":"07 -3652942","Lat":22.7070751,"Lng":120.29303,"Area":null},{"Name":"常禾藥局","Address":"高雄市楠梓區常德路333號一樓","Tel":"07 -3537431","Lat":22.73753,"Lng":120.337212,"Area":null},{"Name":"佶辰藥局","Address":"高雄市楠梓區德民路641號1Ｆ","Tel":"07 -3662802","Lat":22.72242,"Lng":120.29615,"Area":null},{"Name":"建佑藥局","Address":"高雄市楠梓區右昌街191號","Tel":"07 -3626893","Lat":22.7115135,"Lng":120.288979,"Area":null},{"Name":"誠群藥局","Address":"高雄市楠梓區樂群路182號1樓","Tel":"07 -3661733","Lat":22.7191448,"Lng":120.29702,"Area":null},{"Name":"合德中西藥師藥局","Address":"高雄市楠梓區楠梓路486號","Tel":"07 -3581291","Lat":22.738121,"Lng":120.3244,"Area":null},{"Name":"天健藥局","Address":"高雄市楠梓區後昌路1087號","Tel":"07 -3634179","Lat":22.71716,"Lng":120.292137,"Area":null},{"Name":"德賢藥師藥局","Address":"高雄市楠梓區德賢路551號","Tel":"07 -3606056","Lat":22.7254486,"Lng":120.300331,"Area":null},{"Name":"皇慶藥局","Address":"高雄市楠梓區和光街191號","Tel":"07 -3643352","Lat":22.70904,"Lng":120.296036,"Area":null},{"Name":"元春中西藥師藥局","Address":"高雄市楠梓區後昌路837巷45.47號","Tel":"07 -3605656","Lat":22.7111111,"Lng":120.293861,"Area":null},{"Name":"長義藥局","Address":"高雄市楠梓區惠民路48號","Tel":"07 -3640593","Lat":22.7249088,"Lng":120.298691,"Area":null},{"Name":"家安藥局","Address":"高雄市楠梓區後昌新路13號1樓","Tel":"07 -3600066","Lat":22.7185268,"Lng":120.291779,"Area":null},{"Name":"明曜藥局","Address":"高雄市三民區澄和路96號","Tel":"07 -3803807","Lat":22.644886,"Lng":120.3439,"Area":null},{"Name":"杏安藥局","Address":"高雄市三民區十全一路91 號","Tel":"07 -3111606","Lat":22.6446667,"Lng":120.310837,"Area":null},{"Name":"瑞鶴藥局","Address":"高雄市三民區寶德里義德路25號","Tel":"07 -3862757","Lat":22.6430588,"Lng":120.335266,"Area":null},{"Name":"信彰藥師藥局","Address":"高雄市三民區鼎中路627號","Tel":"07 -3422376","Lat":22.6718426,"Lng":120.3209,"Area":null},{"Name":"日星藥局","Address":"高雄市三民區寶龍里惠德街38號","Tel":"07 -3845188","Lat":22.6473045,"Lng":120.324188,"Area":null},{"Name":"安成藥局","Address":"高雄市三民區察哈爾二街63號","Tel":"07 -3229295","Lat":22.6477032,"Lng":120.300896,"Area":null},{"Name":"合祥藥局","Address":"高雄市三民區本元里昭良街68號","Tel":"07 -3830180","Lat":22.6529064,"Lng":120.332573,"Area":null},{"Name":"安信藥局","Address":"高雄市三民區灣中里鼎山街665號","Tel":"07 -3825577","Lat":22.649519,"Lng":120.316429,"Area":null},{"Name":"順發藥局","Address":"高雄市三民區建工路496號","Tel":"07 -3832329","Lat":22.6511478,"Lng":120.3266,"Area":null},{"Name":"利民藥局","Address":"高雄市三民區孝順街74號","Tel":"07 -3125436","Lat":22.6431351,"Lng":120.31282,"Area":null},{"Name":"明皇藥局","Address":"高雄市三民區寶國里義華路181號","Tel":"07 -3860121","Lat":22.6427078,"Lng":120.339958,"Area":null},{"Name":"昱林藥局","Address":"高雄市三民區永年街67號","Tel":"07 -3863286","Lat":22.6417923,"Lng":120.31765,"Area":null},{"Name":"上正藥師藥局","Address":"高雄市三民區憲政路255號","Tel":"07 -2223355","Lat":22.6364765,"Lng":120.318428,"Area":null},{"Name":"安寧藥局","Address":"高雄市三民區嫩江街39號","Tel":"07 -3217585","Lat":22.6421127,"Lng":120.298233,"Area":null},{"Name":"億生藥局","Address":"高雄市三民區南台路200號","Tel":"07 -2873436","Lat":22.6371,"Lng":120.298111,"Area":null},{"Name":"久大藥局","Address":"高雄市三民區本文里立忠路32號1Ｆ","Tel":"07 -3858116","Lat":22.6531677,"Lng":120.325386,"Area":null},{"Name":"建銘藥局","Address":"高雄市三民區吉林街262號","Tel":"07 -3133460","Lat":22.648201,"Lng":120.3069,"Area":null},{"Name":"善全藥局","Address":"高雄市三民區義華路391號","Tel":"07 -3960269","Lat":22.6433163,"Lng":120.333176,"Area":null},{"Name":"文安學藥局","Address":"高雄市三民區寶業里覺民路62號","Tel":"07 -3809400","Lat":22.63907,"Lng":120.342659,"Area":null},{"Name":"勝發藥局","Address":"高雄市三民區金鼎路350號","Tel":"07 -3474780","Lat":22.66517,"Lng":120.319717,"Area":null},{"Name":"建保藥局","Address":"高雄市三民區陽明路413號","Tel":"07 -3920433","Lat":22.645647,"Lng":120.342377,"Area":null},{"Name":"柏仁藥局","Address":"高雄市三民區覺民路504號","Tel":"07 -3976016","Lat":22.64087,"Lng":120.331566,"Area":null},{"Name":"大樂藥局","Address":"高雄市三民區明誠二路16號一樓","Tel":"07 -3501052","Lat":22.6599,"Lng":120.315193,"Area":null},{"Name":"岱安藥局","Address":"高雄市三民區熱河二街23號","Tel":"07 -3219946","Lat":22.6439857,"Lng":120.30172,"Area":null},{"Name":"大家藥局","Address":"高雄市三民區鼎中路229號1樓","Tel":"07 -3107632","Lat":22.6640415,"Lng":120.319183,"Area":null},{"Name":"長慶藥局","Address":"高雄市三民區金鼎路310號","Tel":"07 -3105835","Lat":22.6650829,"Lng":120.320717,"Area":null},{"Name":"新正興藥局","Address":"高雄市三民區正興路100號","Tel":"07 -3892646","Lat":22.6461163,"Lng":120.320541,"Area":null},{"Name":"鴻慶藥局","Address":"高雄市三民區裕誠路70號","Tel":"07 -9536166","Lat":22.6639671,"Lng":120.314072,"Area":null},{"Name":"民安藥局","Address":"高雄市三民區嫩江街70號","Tel":"07 -3121381","Lat":22.6428432,"Lng":120.298508,"Area":null},{"Name":"欣仁惠藥局","Address":"高雄市三民區大昌二路248號","Tel":"07 -3837833","Lat":22.6452675,"Lng":120.3322,"Area":null},{"Name":"台安藥局","Address":"高雄市三民區華德街149號1樓","Tel":"07 -3972340","Lat":22.6484489,"Lng":120.321518,"Area":null},{"Name":"育英藥局","Address":"高雄市三民區灣子里和順街39號","Tel":"07 -3824467","Lat":22.6533737,"Lng":120.316025,"Area":null},{"Name":"崧民藥師藥局","Address":"高雄市三民區金鼎路228號","Tel":"07 -3102496","Lat":22.6648712,"Lng":120.323792,"Area":null},{"Name":"永勝藥局","Address":"高雄市三民區褒忠街114號","Tel":"07 -3814643","Lat":22.6422176,"Lng":120.334045,"Area":null},{"Name":"上泰藥局","Address":"高雄市三民區鼎山街569號","Tel":"07 -3987396","Lat":22.65147,"Lng":120.317642,"Area":null},{"Name":"陽明藥局","Address":"高雄市三民區陽明路287號","Tel":"07 -3960376","Lat":22.6435,"Lng":120.341988,"Area":null},{"Name":"伍陸藥局","Address":"高雄市三民區正興路94號","Tel":"07 -3890676","Lat":22.6459713,"Lng":120.3208,"Area":null},{"Name":"華南藥局","Address":"高雄市三民區中和街124號","Tel":"07 -3127483","Lat":22.6394577,"Lng":120.287811,"Area":null},{"Name":"健爾康藥局","Address":"高雄市三民區正興路23號","Tel":"07 -3965658","Lat":22.6457024,"Lng":120.322548,"Area":null},{"Name":"新久億藥局","Address":"高雄市三民區正興路183號","Tel":"07 -3986909","Lat":22.6475487,"Lng":120.3197,"Area":null},{"Name":"建工丁丁藥局","Address":"高雄市三民區建工路568號","Tel":"07 -3830841","Lat":22.65014,"Lng":120.324463,"Area":null},{"Name":"愛橋藥局","Address":"高雄市三民區陽明路192號","Tel":"07 -3945146","Lat":22.64213,"Lng":120.342087,"Area":null},{"Name":"利安藥局","Address":"高雄市三民區建工路545號","Tel":"07 -3965550","Lat":22.648468,"Lng":120.321281,"Area":null},{"Name":"必好藥局","Address":"高雄市三民區義華路460號","Tel":"07 -3851751","Lat":22.6435432,"Lng":120.331253,"Area":null},{"Name":"朝陽健保藥局","Address":"高雄市三民區陽明路57號1樓","Tel":"07 -3839886","Lat":22.6386242,"Lng":120.341133,"Area":null},{"Name":"振源藥局","Address":"高雄市三民區熱河一街355號1樓","Tel":"07 -3112541","Lat":22.6436958,"Lng":120.306168,"Area":null},{"Name":"連作藥局","Address":"高雄市新興區大同一路203－1號","Tel":"07 -2154716","Lat":22.6286278,"Lng":120.300339,"Area":null},{"Name":"成益藥局","Address":"高雄市新興區德望里復興一路4之2號","Tel":"07 -2265015","Lat":22.628109,"Lng":120.308052,"Area":null},{"Name":"永明藥局","Address":"高雄市新興區仁智街223號","Tel":"07 -2619832","Lat":22.6207924,"Lng":120.302757,"Area":null},{"Name":"長青藥局","Address":"高雄市新興區六合路114號","Tel":"07 -2229220","Lat":22.63216,"Lng":120.315865,"Area":null},{"Name":"銘泰藥局","Address":"高雄市新興區自立二路166號","Tel":"07 -2855165","Lat":22.6335945,"Lng":120.298126,"Area":null},{"Name":"元盛藥局","Address":"高雄市新興區六合路153號","Tel":"07 -2228183","Lat":22.63196,"Lng":120.314972,"Area":null},{"Name":"岩生藥局","Address":"高雄市前金區自立一路15－1號","Tel":"07 -2863608","Lat":22.6343727,"Lng":120.297592,"Area":null},{"Name":"大衛藥局","Address":"高雄市前金區中華三路188號","Tel":"07 -2859958","Lat":22.6320763,"Lng":120.295013,"Area":null},{"Name":"中華藥局","Address":"高雄市前金區中華四路363號","Tel":"07 -2712779","Lat":22.62138,"Lng":120.298721,"Area":null},{"Name":"瑞林藥局","Address":"高雄市苓雅區興中一路282號","Tel":"07 -3312146","Lat":22.6161766,"Lng":120.30574,"Area":null},{"Name":"佳鴻中西藥局","Address":"高雄市苓雅區文昌路11號","Tel":"07 -7497103","Lat":22.6310253,"Lng":120.3385,"Area":null},{"Name":"正和藥局","Address":"高雄市苓雅區福建路362號","Tel":"07 -2265377","Lat":22.6265621,"Lng":120.313751,"Area":null},{"Name":"瑞士藥局","Address":"高雄市苓雅區建國一路62巷25號","Tel":"07 -7493348","Lat":22.6314869,"Lng":120.337151,"Area":null},{"Name":"政德藥局","Address":"高雄市苓雅區正大里武廟路29號","Tel":"07 -7114371","Lat":22.629961,"Lng":120.331779,"Area":null},{"Name":"廣德泰藥局","Address":"高雄市苓雅區苓雅二路76號","Tel":"07 -3340769","Lat":22.617588,"Lng":120.299721,"Area":null},{"Name":"弘宗藥局","Address":"高雄市苓雅區武智街2號","Tel":"07 -7211088","Lat":22.6230011,"Lng":120.33567,"Area":null},{"Name":"福海藥局","Address":"高雄市苓雅區武慶三路58號","Tel":"07 -7618855","Lat":22.6196423,"Lng":120.332039,"Area":null},{"Name":"三和藥局","Address":"高雄市苓雅區廣州二街117號","Tel":"07 -7220808","Lat":22.6182327,"Lng":120.31929,"Area":null},{"Name":"柏松藥局","Address":"高雄市苓雅區輔仁路175號","Tel":"07 -7119786","Lat":22.6306362,"Lng":120.333221,"Area":null},{"Name":"一加藥局","Address":"高雄市苓雅區和平一路四二號","Tel":"07 -7212748","Lat":22.6201553,"Lng":120.321724,"Area":null},{"Name":"京城藥局","Address":"高雄市苓雅區林德街18號","Tel":"07 -7227737","Lat":22.623827,"Lng":120.316528,"Area":null},{"Name":"天新藥局","Address":"高雄市苓雅區華堂里林森二路1－3號","Tel":"07 -3342754","Lat":22.6156139,"Lng":120.308243,"Area":null},{"Name":"功安中西大藥局","Address":"高雄市苓雅區三多二路291號","Tel":"07 -7215949","Lat":22.61867,"Lng":120.31955,"Area":null},{"Name":"福興藥局","Address":"高雄市苓雅區成功一路52號","Tel":"07 -3331862","Lat":22.6131344,"Lng":120.298248,"Area":null},{"Name":"苓中藥局","Address":"高雄市苓雅區永平路64號","Tel":"07 -3311667","Lat":22.6156082,"Lng":120.293854,"Area":null},{"Name":"明群藥局","Address":"高雄市苓雅區英明路54號","Tel":"07 -7254953","Lat":22.6128674,"Lng":120.32531,"Area":null},{"Name":"寶麒藥局","Address":"高雄市苓雅區三多一路144號","Tel":"07 -7610355","Lat":22.6229858,"Lng":120.331505,"Area":null},{"Name":"東信藥局","Address":"高雄市苓雅區三多一路189號","Tel":"07 -7613309","Lat":22.62259,"Lng":120.331406,"Area":null},{"Name":"順一藥局","Address":"高雄市苓雅區田西里成功一路210號","Tel":"07 -3330011","Lat":22.6168861,"Lng":120.296822,"Area":null},{"Name":"健智藥局","Address":"高雄市苓雅區四維二路96之2號","Tel":"07 -7249153","Lat":22.6225643,"Lng":120.319229,"Area":null},{"Name":"晨安藥局","Address":"高雄市苓雅區興中一路160號","Tel":"07 -3365463","Lat":22.6175327,"Lng":120.309563,"Area":null},{"Name":"瑞生藥局","Address":"高雄市苓雅區自強三路31號","Tel":"07 -3305239","Lat":22.6137981,"Lng":120.299629,"Area":null},{"Name":"琉璃光藥師藥局","Address":"高雄市苓雅區四維一路292號之一樓","Tel":"07 -7160930","Lat":22.624258,"Lng":120.324532,"Area":null},{"Name":"杏合藥局","Address":"高雄市苓雅區福德二路216號","Tel":"07 -7268966","Lat":22.6339417,"Lng":120.328346,"Area":null},{"Name":"新良安藥局","Address":"高雄市苓雅區苓雅二路106號","Tel":"07 -3386980","Lat":22.6171932,"Lng":120.298721,"Area":null},{"Name":"邱吉祥藥局","Address":"高雄市苓雅區凱旋二路135號","Tel":"07 -2226055","Lat":22.6291885,"Lng":120.321762,"Area":null},{"Name":"聖安藥局","Address":"高雄市苓雅區建華街303號","Tel":"07 -7716813","Lat":22.6179619,"Lng":120.32383,"Area":null},{"Name":"上好藥局","Address":"高雄市苓雅區四維一路六三號一樓","Tel":"07 -7266863","Lat":22.6257458,"Lng":120.329544,"Area":null},{"Name":"健福藥局","Address":"高雄市苓雅區永富街10號","Tel":"07 -3381746","Lat":22.6188736,"Lng":120.316444,"Area":null},{"Name":"召祐健保藥局","Address":"高雄市苓雅區正義路93號","Tel":"07 -7493719","Lat":22.6303539,"Lng":120.3386,"Area":null},{"Name":"文仁藥局","Address":"高雄市前鎮區明正里草衙二路460號","Tel":"07 -8413116","Lat":22.5798416,"Lng":120.322922,"Area":null},{"Name":"意文藥局","Address":"高雄市前鎮區瑞華里武營路183號","Tel":"07 -7226570","Lat":22.60995,"Lng":120.3375,"Area":null},{"Name":"勝惠藥局","Address":"高雄市前鎮區忠孝里三多三路71號","Tel":"07 -3354766","Lat":22.6163616,"Lng":120.31218,"Area":null},{"Name":"一統藥局","Address":"高雄市前鎮區瑞崗里瑞和街251號","Tel":"07 -7710633","Lat":22.605547,"Lng":120.326721,"Area":null},{"Name":"八仙藥局","Address":"高雄市前鎮區瑞隆路251號","Tel":"07 -7270001","Lat":22.6054726,"Lng":120.333115,"Area":null},{"Name":"家安大藥局","Address":"高雄市前鎮區崗山南街342巷21號","Tel":"07 -7137711","Lat":22.6020412,"Lng":120.3323,"Area":null},{"Name":"博平藥局","Address":"高雄市前鎮區草衙二路377號","Tel":"07 -8311814","Lat":22.578146,"Lng":120.32251,"Area":null},{"Name":"民光藥局","Address":"高雄市前鎮區林森三路48號","Tel":"07 -3335362","Lat":22.6111259,"Lng":120.307632,"Area":null},{"Name":"北京藥局","Address":"高雄市前鎮區公正路31號","Tel":"07 -7113100","Lat":22.6029758,"Lng":120.332207,"Area":null},{"Name":"百宏中西大藥局","Address":"高雄市前鎮區復興三路194號","Tel":"07 -3386719","Lat":22.6131725,"Lng":120.31163,"Area":null},{"Name":"迎廣藥局","Address":"高雄市前鎮區林森三路150號2樓","Tel":"07 -3321466","Lat":22.6136456,"Lng":120.308838,"Area":null},{"Name":"彥芳藥局","Address":"高雄市前鎮區長江街65號1樓","Tel":"07 -3302007","Lat":22.6099949,"Lng":120.315392,"Area":null},{"Name":"惠芳藥局","Address":"高雄市前鎮區一心一路486號","Tel":"07 -5370650","Lat":22.6099472,"Lng":120.314186,"Area":null},{"Name":"旺盛藥局","Address":"高雄市前鎮區永豐路108號","Tel":"07 -7512899","Lat":22.60644,"Lng":120.333595,"Area":null},{"Name":"元生藥局","Address":"高雄市前鎮區鎮興路226號1樓","Tel":"07 -8156356","Lat":22.593,"Lng":120.311691,"Area":null},{"Name":"協和藥局","Address":"高雄市前鎮區中華五路983號","Tel":"07 -5377769","Lat":22.6022739,"Lng":120.306023,"Area":null},{"Name":"羿昇藥局","Address":"高雄市前鎮區一心一路492號","Tel":"07 -3387737","Lat":22.6100254,"Lng":120.314011,"Area":null},{"Name":"晏昇藥局","Address":"高雄市前鎮區凱旋三路81號","Tel":"07 -7235136","Lat":22.60677,"Lng":120.324738,"Area":null},{"Name":"吉昌藥局","Address":"高雄市前鎮區正勤路100號","Tel":"07 -3368782","Lat":22.6030216,"Lng":120.305664,"Area":null},{"Name":"民權丁丁藥局","Address":"高雄市前鎮區民權二路345號","Tel":"07 -9650177","Lat":22.6101227,"Lng":120.312614,"Area":null},{"Name":"廣泰藥局","Address":"高雄市前鎮區瑞北路56號","Tel":"07 -7162166","Lat":22.6092834,"Lng":120.334595,"Area":null},{"Name":"健家藥局","Address":"高雄市前鎮區二聖二路45號","Tel":"07 -3389986","Lat":22.6130142,"Lng":120.3165,"Area":null},{"Name":"慈濟健保藥局","Address":"高雄市前鎮區鎮州路211號","Tel":"07 -8159788","Lat":22.5881882,"Lng":120.308167,"Area":null},{"Name":"旗后藥局","Address":"高雄市旗津區中洲三路715號","Tel":"07 -5715838","Lat":22.611002,"Lng":120.270515,"Area":null},{"Name":"千佑藥局","Address":"高雄市旗津區復興里中洲三路513號","Tel":"07 -5712619","Lat":22.60615,"Lng":120.273582,"Area":null},{"Name":"康富藥局","Address":"高雄市旗津區旗津二路220號","Tel":"07 -5710567","Lat":22.57635,"Lng":120.29599,"Area":null},{"Name":"文祺藥局","Address":"高雄市小港區正苓里平治街112號","Tel":"07 -8014066","Lat":22.5674725,"Lng":120.354324,"Area":null},{"Name":"鳳明中西大藥局","Address":"高雄市小港區二苓路247號","Tel":"07 -8011846","Lat":22.5653629,"Lng":120.34774,"Area":null},{"Name":"億大藥局","Address":"高雄市小港區三苓里永義街171號","Tel":"07 -8014958","Lat":22.5667458,"Lng":120.34893,"Area":null},{"Name":"大裕藥局","Address":"高雄市小港區小港里小港路261號","Tel":"07 -8211467","Lat":22.56386,"Lng":120.335876,"Area":null},{"Name":"新源興藥局","Address":"高雄市小港區宏平路298號","Tel":"07 -8015567","Lat":22.5701485,"Lng":120.361031,"Area":null},{"Name":"臨生藥局","Address":"高雄市小港區鳳鳴路146－4號","Tel":"07 -8711290","Lat":22.5147381,"Lng":120.358551,"Area":null},{"Name":"龍祺藥局","Address":"高雄市小港區平和路111號","Tel":"07 -8315352","Lat":22.5657387,"Lng":120.333076,"Area":null},{"Name":"慈林藥局","Address":"高雄市小港區鳳林路93號","Tel":"07 -8718087","Lat":22.52636,"Lng":120.3464,"Area":null},{"Name":"高泰藥局","Address":"高雄市小港區桂陽路7號","Tel":"07 -7930043","Lat":22.5814285,"Lng":120.358452,"Area":null},{"Name":"悅是康藥局","Address":"高雄市小港區漢民路276號","Tel":"07 -8010012","Lat":22.5666981,"Lng":120.353554,"Area":null},{"Name":"康乃爾藥局","Address":"高雄市小港區漢民路413號2樓","Tel":"07 -8026291","Lat":22.56704,"Lng":120.35775,"Area":null},{"Name":"桂林活力藥師藥局","Address":"高雄市小港區桂陽路40號","Tel":"07 -7931248","Lat":22.5819321,"Lng":120.357483,"Area":null},{"Name":"康莊藥局","Address":"高雄市小港區康莊路69號一樓","Tel":"07 -8063384","Lat":22.568531,"Lng":120.355995,"Area":null},{"Name":"力安藥師藥局","Address":"高雄市小港區桂陽路316號1樓","Tel":"07 -7918167","Lat":22.5820885,"Lng":120.352257,"Area":null},{"Name":"丁丁藥局小港店","Address":"高雄市小港區宏平路85號","Tel":"07 -8603388","Lat":22.5712986,"Lng":120.363976,"Area":null},{"Name":"康健藥局","Address":"臺中市豐原區西勢里中山路373號","Tel":"04 -25279542","Lat":24.2496777,"Lng":120.714539,"Area":null},{"Name":"金宏健保藥局","Address":"臺中市豐原區安康路103號","Tel":"04 -25288262","Lat":24.2431049,"Lng":120.72583,"Area":null},{"Name":"一加藥局","Address":"臺中市豐原區中正路195號","Tel":"04 -25237700","Lat":24.25167,"Lng":120.718506,"Area":null},{"Name":"理妍藥局","Address":"臺中市豐原區中正路379號","Tel":"04 -25270140","Lat":24.2507858,"Lng":120.713387,"Area":null},{"Name":"友誠藥局","Address":"臺中市豐原區豐東路401號1樓","Tel":"04 -25132371","Lat":24.2546921,"Lng":120.7335,"Area":null},{"Name":"維立藥局","Address":"臺中市豐原區豐南街12號1樓","Tel":"04 -25337605","Lat":24.2395535,"Lng":120.712021,"Area":null},{"Name":"永豐藥局","Address":"臺中市豐原區中山路422號1樓","Tel":"04 -25280088","Lat":24.2472935,"Lng":120.715363,"Area":null},{"Name":"豐原西勢藥局","Address":"臺中市豐原區西勢路200號1樓","Tel":"04 -25262330","Lat":24.2437363,"Lng":120.7067,"Area":null},{"Name":"福心藥局","Address":"臺中市豐原區中正路715號1樓","Tel":"04 -25229292","Lat":24.2489624,"Lng":120.701424,"Area":null},{"Name":"心美日藥局","Address":"臺中市豐原區中山路359號1樓","Tel":"04 -25260703","Lat":24.2492771,"Lng":120.71479,"Area":null},{"Name":"豐原百宏中西藥局","Address":"臺中市豐原區水源路595號1樓","Tel":"04 -25242185","Lat":24.2549648,"Lng":120.729614,"Area":null},{"Name":"富田藥局","Address":"臺中市豐原區文昌街152號1樓","Tel":"04 -25225453","Lat":24.2613029,"Lng":120.716278,"Area":null},{"Name":"昭仁藥局","Address":"臺中市豐原區南陽路140號","Tel":"04 -25243559","Lat":24.2427483,"Lng":120.730667,"Area":null},{"Name":"甲蒂健保藥局","Address":"臺中市豐原區豐東路308號","Tel":"04 -25256028","Lat":24.250927,"Lng":120.733063,"Area":null},{"Name":"豐原啄木鳥藥局","Address":"臺中市豐原區中山路178號1樓","Tel":"04 -25295340","Lat":24.2399921,"Lng":120.71212,"Area":null},{"Name":"信宜藥局","Address":"臺中市豐原區中山路395號","Tel":"04 -25229912","Lat":24.2502689,"Lng":120.7146,"Area":null},{"Name":"品安藥局","Address":"臺中市豐原區中山路405號","Tel":"04 -25270138","Lat":24.2503777,"Lng":120.714363,"Area":null},{"Name":"佑全豐原圓環東藥局","Address":"臺中市豐原區圓環東路548、550、552、554號","Tel":"04 -25246069","Lat":24.24806,"Lng":120.727142,"Area":null},{"Name":"長庚健保大藥局","Address":"臺中市豐原區中正路132號1樓","Tel":"04 -25151867","Lat":24.2519627,"Lng":120.720184,"Area":null},{"Name":"喜樂魚藥局","Address":"臺中市豐原區圓環東路613號1樓","Tel":"04 -25200226","Lat":24.2507133,"Lng":120.728195,"Area":null},{"Name":"豐原藥局","Address":"臺中市豐原區新生北路206號之1（1樓）","Tel":"04 -25260119","Lat":24.2551479,"Lng":120.721931,"Area":null},{"Name":"心之藥局","Address":"臺中市豐原區中山路504號","Tel":"04 -25254959","Lat":24.2501583,"Lng":120.715034,"Area":null},{"Name":"阜康藥局","Address":"臺中市豐原區中山路295號1樓","Tel":"04 -25155977","Lat":24.24766,"Lng":120.714973,"Area":null},{"Name":"大樹圓環藥局","Address":"臺中市豐原區圓環東路617號1樓","Tel":"04 -25122212","Lat":24.2507133,"Lng":120.7281,"Area":null},{"Name":"百宏大藥局","Address":"臺中市豐原區中正路860號1樓","Tel":"04 -25131538","Lat":24.24937,"Lng":120.701027,"Area":null},{"Name":"國良豐藥局","Address":"臺中市東勢區豐勢路21號1樓","Tel":"04 -25885778","Lat":24.24783,"Lng":120.831841,"Area":null},{"Name":"向日葵藥局","Address":"臺中市東勢區豐勢路557號","Tel":"04 -25773428","Lat":24.2597084,"Lng":120.827194,"Area":null},{"Name":"東勢福倫藥局","Address":"臺中市東勢區豐勢路438號","Tel":"04 -25876118","Lat":24.255867,"Lng":120.829018,"Area":null},{"Name":"康好藥局","Address":"臺中市大甲區三民路132－2號","Tel":"04 -26802149","Lat":24.3484516,"Lng":120.621933,"Area":null},{"Name":"大甲健康藥局","Address":"臺中市大甲區蔣公路242-1號1樓","Tel":"04 -26805833","Lat":24.34727,"Lng":120.6195,"Area":null},{"Name":"康達藥局","Address":"臺中市大甲區蔣公路266號1樓","Tel":"04 -26862001","Lat":24.34749,"Lng":120.6189,"Area":null},{"Name":"甲尚藥局","Address":"台中市大甲區順天路128號","Tel":"04 -26760885","Lat":24.3445072,"Lng":120.6222,"Area":null},{"Name":"百禾藥局","Address":"臺中市大甲區仁愛街58號","Tel":"04 -26872538","Lat":24.3471851,"Lng":120.618744,"Area":null},{"Name":"廣元藥局","Address":"臺中市大甲區順天路146號1樓","Tel":"04 -26872843","Lat":24.3448448,"Lng":120.6225,"Area":null},{"Name":"大甲啄木鳥藥局","Address":"臺中市大甲區中山路1段905號","Tel":"04 -26804502","Lat":24.3431644,"Lng":120.625076,"Area":null},{"Name":"聖佑藥局","Address":"臺中市大甲區中山路1段576號1樓","Tel":"04 -26760156","Lat":24.3117752,"Lng":120.604027,"Area":null},{"Name":"能德藥局","Address":"臺中市大甲區復興路22之1號","Tel":"04 -26873549","Lat":24.3460312,"Lng":120.621445,"Area":null},{"Name":"盈盈藥局","Address":"臺中市大甲區文武路18號","Tel":"04 -26804212","Lat":24.3458233,"Lng":120.625961,"Area":null},{"Name":"關心藥局","Address":"臺中市沙鹿區光大路242號","Tel":"04 -26625182","Lat":24.2438259,"Lng":120.565063,"Area":null},{"Name":"進騰藥局","Address":"臺中市沙鹿區鎮南路2段234號","Tel":"04 -26314418","Lat":24.2239418,"Lng":120.56897,"Area":null},{"Name":"仁暉健保處方藥局","Address":"臺中市沙鹿區向上路7段130號","Tel":"04 -26365626","Lat":24.2064037,"Lng":120.5644,"Area":null},{"Name":"沙鹿合和健保藥局","Address":"臺中市沙鹿區正義路2號","Tel":"04 -26320590","Lat":24.20932,"Lng":120.569237,"Area":null},{"Name":"北勢進騰藥局","Address":"臺中市沙鹿區北勢東路509之7號1樓","Tel":"04 -26330893","Lat":24.2246914,"Lng":120.576324,"Area":null},{"Name":"立好藥局","Address":"臺中市沙鹿區北勢東路693號1樓","Tel":"04 -26522389","Lat":24.2296371,"Lng":120.57225,"Area":null},{"Name":"全國藥局","Address":"臺中市沙鹿區臺灣大道7段992號","Tel":"04 -26627097","Lat":24.2407436,"Lng":120.562187,"Area":null},{"Name":"好利藥局","Address":"臺中市沙鹿區中山路487－1號","Tel":"04 -26630087","Lat":24.2453327,"Lng":120.56192,"Area":null},{"Name":"樂齊藥局","Address":"臺中市沙鹿區北中路86－1、86－2號","Tel":"04 -26338867","Lat":24.2282543,"Lng":120.56926,"Area":null},{"Name":"鎮南藥局","Address":"臺中市沙鹿區鎮南路2段52號","Tel":"04 -26336160","Lat":24.218298,"Lng":120.570351,"Area":null},{"Name":"富康沙鹿藥局","Address":"臺中市沙鹿區沙田路142號1樓","Tel":"04 -26633399","Lat":24.2361355,"Lng":120.559486,"Area":null},{"Name":"維康藥局","Address":"臺中市沙鹿區鎮南路2段412號1樓","Tel":"04 -26524787","Lat":24.2303276,"Lng":120.566666,"Area":null},{"Name":"百岳大藥局","Address":"臺中市沙鹿區鎮南路二段77號1樓","Tel":"04 -26359825","Lat":24.2190228,"Lng":120.569641,"Area":null},{"Name":"大芳藥局","Address":"臺中市梧棲區中央路1段907號","Tel":"04 -26561755","Lat":24.2474937,"Lng":120.538078,"Area":null},{"Name":"梧棲玖裕藥局","Address":"臺中市梧棲區中和街85號","Tel":"04 -26583909","Lat":24.2554779,"Lng":120.531532,"Area":null},{"Name":"瑞恩藥局","Address":"臺中市梧棲區港埠路1段827巷6號","Tel":"04 -26576171","Lat":24.2440567,"Lng":120.533447,"Area":null},{"Name":"泉興中西大藥局","Address":"臺中市后里區甲后路一段598號","Tel":"04 -25583883","Lat":24.3091412,"Lng":120.721565,"Area":null},{"Name":"得安藥局","Address":"臺中市后里區四村路78號","Tel":"04 -25585333","Lat":24.3046856,"Lng":120.71286,"Area":null},{"Name":"后禮藥局","Address":"臺中市后里區甲后路一段163號1樓","Tel":"04 -25582413","Lat":24.30919,"Lng":120.728867,"Area":null},{"Name":"后里宏安藥局","Address":"臺中市后里區福音路28號1樓","Tel":"04 -25581036","Lat":24.30512,"Lng":120.713409,"Area":null},{"Name":"豪銘藥局","Address":"臺中市后里區公安路68號","Tel":"04 -25562991","Lat":24.30469,"Lng":120.711273,"Area":null},{"Name":"后里瑞士藥師藥局","Address":"臺中市后里區甲后路二段579號","Tel":"04 -25566999","Lat":24.3144932,"Lng":120.68898,"Area":null},{"Name":"祐恩藥局","Address":"臺中市后里區甲后路一段478號1樓","Tel":"04 -25587518","Lat":24.30911,"Lng":120.724037,"Area":null},{"Name":"后里藥局","Address":"臺中市后里區文明路133號1樓","Tel":"04 -25590119","Lat":24.306818,"Lng":120.7164,"Area":null},{"Name":"內埔瑞士藥師藥局","Address":"臺中市后里區中山路37號1樓","Tel":"04 -25566959","Lat":24.30447,"Lng":120.71138,"Area":null},{"Name":"甲后藥局","Address":"臺中市后里區甲后路一段253號1樓","Tel":"04 -25577378","Lat":24.3090324,"Lng":120.7262,"Area":null},{"Name":"長生健保藥局","Address":"臺中市神岡區神岡路63號、65號","Tel":"04 -25610973","Lat":24.2574978,"Lng":120.660767,"Area":null},{"Name":"捷達藥局","Address":"臺中市神岡區大漢街25號","Tel":"04 -25225207","Lat":24.2535362,"Lng":120.697395,"Area":null},{"Name":"社南藥局","Address":"臺中市神岡區民生路24號1樓","Tel":"04 -25616114","Lat":24.24615,"Lng":120.682007,"Area":null},{"Name":"灃洲大藥局","Address":"臺中市神岡區豐洲路466－3號1樓","Tel":"04 -25150169","Lat":24.2617416,"Lng":120.704582,"Area":null},{"Name":"美日康藥局","Address":"臺中市潭子區大新路58號","Tel":"04 -25382308","Lat":24.2024059,"Lng":120.707542,"Area":null},{"Name":"元康健保藥局","Address":"臺中市潭子區圓通南路196號1樓","Tel":"04 -25353893","Lat":24.2072716,"Lng":120.704277,"Area":null},{"Name":"上宇藥局","Address":"臺中市潭子區中山路2段381號1樓","Tel":"04 -25321258","Lat":24.2130089,"Lng":120.705139,"Area":null},{"Name":"愛生藥師藥局","Address":"臺中市潭子區中山路2段491號","Tel":"04 -25321819","Lat":24.2159519,"Lng":120.705093,"Area":null},{"Name":"光陽藥局","Address":"臺中市潭子區福潭路505號1樓","Tel":"04 -25365607","Lat":24.2101383,"Lng":120.710358,"Area":null},{"Name":"佳福藥局","Address":"臺中市潭子區中山路1段43－1號","Tel":"04 -25332982","Lat":24.1915264,"Lng":120.702339,"Area":null},{"Name":"新舒康藥局","Address":"臺中市潭子區勝利路105號","Tel":"04 -25344062","Lat":24.2091255,"Lng":120.701012,"Area":null},{"Name":"名方藥局","Address":"臺中市潭子區勝利路285號1樓","Tel":"04 -25341777","Lat":24.21325,"Lng":120.70047,"Area":null},{"Name":"均安藥局","Address":"臺中市潭子區興華一路503號1樓","Tel":"04 -25310998","Lat":24.214035,"Lng":120.70137,"Area":null},{"Name":"安康藥局","Address":"臺中市潭子區潭興路三段87號","Tel":"04 -25352796","Lat":24.2115211,"Lng":120.702492,"Area":null},{"Name":"惠安藥局","Address":"臺中市潭子區中山路二段362號","Tel":"04 -25340462","Lat":24.2134819,"Lng":120.705414,"Area":null},{"Name":"潭子炘星藥局","Address":"臺中市潭子區中山路一段97號1樓","Tel":"04 -25320107","Lat":24.1932373,"Lng":120.702278,"Area":null},{"Name":"久揚藥局","Address":"臺中市潭子區頭張路一段7號1樓","Tel":"04 -25356103","Lat":24.19435,"Lng":120.701904,"Area":null},{"Name":"信實藥局","Address":"臺中市潭子區大德北路69號1樓","Tel":"04 -25359220","Lat":24.2056465,"Lng":120.677536,"Area":null},{"Name":"成記藥局","Address":"臺中市潭子區潭興路三段93號1樓","Tel":"04 -25358076","Lat":24.211525,"Lng":120.702354,"Area":null},{"Name":"永瑞藥局","Address":"臺中市大雅區民生路1段212號","Tel":"04 -25609969","Lat":24.246315,"Lng":120.682556,"Area":null},{"Name":"大雅東亞藥師大藥局","Address":"臺中市大雅區民生路1段22、22－1號","Tel":"04 -25605233","Lat":24.2258644,"Lng":120.646484,"Area":null},{"Name":"躍獅佑仁藥局","Address":"臺中市大雅區雅環路2段287號","Tel":"04 -25608256","Lat":24.22919,"Lng":120.648857,"Area":null},{"Name":"大詮藥師藥局","Address":"臺中市大雅區民生路3段432號","Tel":"04 -25682767","Lat":24.23442,"Lng":120.6655,"Area":null},{"Name":"炘星藥局","Address":"臺中市大雅區雅環路一段338號1樓","Tel":"04 -25668655","Lat":24.22379,"Lng":120.653671,"Area":null},{"Name":"大雅安德藥局","Address":"臺中市大雅區中清東路229號","Tel":"04 -25604133","Lat":24.2246323,"Lng":120.646927,"Area":null},{"Name":"樂心藥局","Address":"臺中市大雅區建興路143號","Tel":"04 -25682568","Lat":24.2165375,"Lng":120.665863,"Area":null},{"Name":"杏一大雅中清藥局","Address":"臺中市大雅區中清路四段31、33、35號","Tel":"04 -25601791","Lat":24.2262058,"Lng":120.644882,"Area":null},{"Name":"妙昌藥局","Address":"臺中市大雅區永和路194號","Tel":"04 -25664426","Lat":24.22271,"Lng":120.647209,"Area":null},{"Name":"新社千百岳大藥局","Address":"臺中市新社區興安路24、26號","Tel":"04 -25821798","Lat":24.24122,"Lng":120.808273,"Area":null},{"Name":"祐民健保藥局","Address":"臺中市外埔區甲后路三段1030號1樓","Tel":"04 -26836736","Lat":24.3320427,"Lng":120.653023,"Area":null},{"Name":"博翔欣大藥局","Address":"臺中市外埔區重光路33－19號","Tel":"04 -26833312","Lat":24.33129,"Lng":120.652046,"Area":null},